[
  {
    "name": "乐乐网咖",
    "lat": 31.174004,
    "lng": 121.492473,
    "phone": "19116331293",
    "priceText": "¥38/人",
    "address": "昌里路305号",
    "regionName": "上南地区",
    "city": "上海",
    "urlKey": "2025-04-30/dianping/data-lazzGhw3Gxb7nCMO"
  },
  {
    "name": "喵喵网咖",
    "lat": 31.114441,
    "lng": 121.585677,
    "phone": "20943118",
    "priceText": "¥40/人",
    "address": "年家浜路48号1-2层",
    "regionName": "康桥/周浦",
    "city": "上海",
    "urlKey": "2025-04-30/dianping/data-laziP34CalQdgTvL"
  },
  {
    "name": "魔神电竞",
    "lat": 31.283258,
    "lng": 121.677589,
    "phone": "15202172180",
    "priceText": "¥40/人",
    "address": "上川路2271号3楼",
    "regionName": "曹路",
    "city": "上海",
    "urlKey": "2025-04-30/dianping/data-laprDGDB5hLVNaRT"
  },
  {
    "name": "网鱼电竞",
    "lat": 31.241203,
    "lng": 121.679592,
    "phone": "18721431819",
    "priceText": "¥32/人",
    "address": "上丰路1800号2楼",
    "regionName": "迪士尼",
    "city": "上海",
    "urlKey": "2025-04-30/dianping/data-lakwb0iCfP4R56Vb"
  },
  {
    "name": "伊乐网咖台球·PC방& 당구장",
    "lat": 31.300041,
    "lng": 121.493698,
    "phone": "55808627",
    "priceText": "¥46/人",
    "address": "武川路5号B1层（唯庭酒店进去电梯直达）",
    "regionName": "五角场/大学路",
    "city": "上海",
    "urlKey": "2025-04-30/dianping/data-lahrpo6zgcsYtE2q"
  },
  {
    "name": "极狐电竞",
    "lat": 31.143071,
    "lng": 121.618561,
    "phone": "18930316751",
    "priceText": "¥16/人",
    "address": "川周公路2824号2楼",
    "regionName": "康桥/周浦",
    "city": "上海",
    "urlKey": "2025-04-30/dianping/data-laXuk5YUjrPOiyoX"
  },
  {
    "name": "东方电竞·网咖",
    "lat": 31.171971,
    "lng": 121.273748,
    "phone": "13818227282",
    "priceText": "¥48/人",
    "address": "京华路283号2层",
    "regionName": "国家会展中心",
    "city": "上海",
    "urlKey": "2025-04-30/dianping/data-laU1lIbw3Gx3eSZh"
  },
  {
    "name": "网鱼电竞",
    "lat": 30.918788,
    "lng": 121.48675,
    "phone": "15000400497",
    "priceText": "¥14/人",
    "address": "望园南路1799弄18号2座2楼205室（星巴克楼上）",
    "regionName": "南桥",
    "city": "上海",
    "urlKey": "2025-04-30/dianping/data-laRGPueRHprgRvMX"
  },
  {
    "name": "网鱼网咖",
    "lat": 31.119448,
    "lng": 121.585836,
    "phone": "16503150239",
    "priceText": "¥25/人",
    "address": "关岳路108号2楼",
    "regionName": "康桥/周浦",
    "city": "上海",
    "urlKey": "2025-04-30/dianping/data-laQJOUdjoJlRlm3o"
  },
  {
    "name": "星宫电竞",
    "lat": 31.324227,
    "lng": 121.272199,
    "phone": "19145656812",
    "priceText": "¥16/人",
    "address": "宝安公路3705弄马陆包装城38-39号",
    "regionName": "马陆镇",
    "city": "上海",
    "urlKey": "2025-04-30/dianping/data-laCvOTEsTIBJNSZv"
  },
  {
    "name": "第九维度电竞",
    "lat": 31.229791,
    "lng": 121.518911,
    "phone": "15801993236",
    "priceText": "¥45/人",
    "address": "南泉北路588号（新大陆广场北楼N2-05/06）",
    "regionName": "八佰伴",
    "city": "上海",
    "urlKey": "2025-04-30/dianping/data-la9viWDWDHpWKCag"
  },
  {
    "name": "网鱼电竞",
    "lat": 31.159844,
    "lng": 121.564421,
    "phone": "13482836381",
    "priceText": "¥30/人",
    "address": "沪南路2229弄复地活力城商场北区4楼4023（海底捞楼上）",
    "regionName": "御桥",
    "city": "上海",
    "urlKey": "2025-04-30/dianping/data-l9tqhdFhiyZFgz0W"
  },
  {
    "name": "网鱼网咖",
    "lat": 31.314981,
    "lng": 121.352634,
    "phone": "13061664655",
    "priceText": "¥32/人",
    "address": "市台路388号3楼",
    "regionName": "市台路",
    "city": "上海",
    "urlKey": "2025-04-30/dianping/data-l9jSj8AA1e3dPLAA"
  },
  {
    "name": "蓝像素·腾讯电竞馆",
    "lat": 31.259904,
    "lng": 121.472044,
    "phone": "58885859",
    "priceText": "¥6/人",
    "address": "宝山路街道芷江中路266号(中医医院旁)",
    "regionName": "西藏北路/中兴路",
    "city": "上海",
    "urlKey": "2025-04-30/dianping/data-l9i2InrHMMdP7IbY"
  },
  {
    "name": "",
    "lat": "",
    "lng": "",
    "phone": "",
    "priceText": "",
    "address": "",
    "regionName": "",
    "city": "上海",
    "urlKey": "2025-04-30/dianping/data-l9eo8qgKAXB9zY9A"
  },
  {
    "name": "Bwin电竞",
    "lat": 31.070261,
    "lng": 121.504461,
    "phone": "18117013753",
    "priceText": "¥26/人",
    "address": "竹园西路930弄4号3层301室",
    "regionName": "浦江镇",
    "city": "上海",
    "urlKey": "2025-04-30/dianping/data-l9e8p6aKn7O60bv4"
  },
  {
    "name": "网鱼网咖",
    "lat": 31.117184,
    "lng": 121.575607,
    "phone": "15201753855",
    "priceText": "¥36/人",
    "address": "康沈路1608号2层",
    "regionName": "康桥/周浦",
    "city": "上海",
    "urlKey": "2025-04-30/dianping/data-l9PosxOjeaY0rKgN"
  },
  {
    "name": "网鱼电竞",
    "lat": 31.245258,
    "lng": 121.564788,
    "phone": "17510441370",
    "priceText": "¥36/人",
    "address": "张杨路2852号-2860号二层201室",
    "regionName": "金杨地区",
    "city": "上海",
    "urlKey": "2025-04-30/dianping/data-l9PEFEtFPKMGME8D"
  },
  {
    "name": "东方电竞馆",
    "lat": 31.381405,
    "lng": 121.437352,
    "phone": "15001805372",
    "priceText": "¥26/人",
    "address": "杨泰路698号2楼",
    "regionName": "杨行镇",
    "city": "上海",
    "urlKey": "2025-04-30/dianping/data-l9OSVCv6cjtF8hGu"
  },
  {
    "name": "网鱼电竞",
    "lat": 31.143145,
    "lng": 121.525345,
    "phone": "13032159792",
    "priceText": "¥31/人",
    "address": "永泰路1205号207室",
    "regionName": "世博园",
    "city": "上海",
    "urlKey": "2025-04-30/dianping/data-l9N2D1wwytXP8H3X"
  },
  {
    "name": "云翔网咖",
    "lat": 31.295458,
    "lng": 121.284606,
    "phone": "13636652713",
    "priceText": "¥39/人",
    "address": "嘉年路656号3楼",
    "regionName": "南翔",
    "city": "上海",
    "urlKey": "2025-04-30/dianping/data-l94o4KCrvkrNTnlU"
  },
  {
    "name": "热猫网咖",
    "lat": 31.012574,
    "lng": 121.315081,
    "phone": "19535868405",
    "priceText": "¥14/人",
    "address": "车墩影视路21-23号",
    "regionName": "车墩影视城",
    "city": "上海",
    "urlKey": "2025-04-30/dianping/data-l92vwW8nzco9OAKA"
  },
  {
    "name": "网鱼电竞",
    "lat": 31.202853,
    "lng": 121.612005,
    "phone": "13585585588",
    "priceText": "¥32/人",
    "address": "建中路242弄257号F32",
    "regionName": "张江",
    "city": "上海",
    "urlKey": "2025-04-30/dianping/data-l90Ufd1pbDV0rVAD"
  },
  {
    "name": "咖友电竞",
    "lat": 31.405634,
    "lng": 121.346621,
    "phone": "18016309880",
    "priceText": "¥36/人",
    "address": "罗芬路1312号",
    "regionName": "美兰湖",
    "city": "上海",
    "urlKey": "2025-04-30/dianping/data-l8owczql3IVVRmJ7"
  },
  {
    "name": "亿杰电竞馆",
    "lat": 31.175643,
    "lng": 121.501248,
    "phone": "18916368743",
    "priceText": "¥41/人",
    "address": "昌里路109号2楼",
    "regionName": "上南地区",
    "city": "上海",
    "urlKey": "2025-04-30/dianping/data-l8lc0pEE1GhBtBPg"
  },
  {
    "name": "网鱼网咖·棋牌",
    "lat": 31.017491,
    "lng": 121.239991,
    "phone": "13061873202",
    "priceText": "¥47/人",
    "address": "荣乐中路12弄1号方舟广场3楼",
    "regionName": "松江镇",
    "city": "上海",
    "urlKey": "2025-04-30/dianping/data-l8kMCDkf06cBd8jX"
  },
  {
    "name": "子奇电竞·棋牌",
    "lat": 31.041022,
    "lng": 121.451077,
    "phone": "13482720701",
    "priceText": "¥44/人",
    "address": "尚义路229弄195号2楼A区",
    "regionName": "吴泾镇",
    "city": "上海",
    "urlKey": "2025-04-30/dianping/data-l8Nzg8MW1wIRlph7"
  },
  {
    "name": "魔神电竞",
    "lat": 31.320917,
    "lng": 121.480075,
    "phone": "17601317452",
    "priceText": "¥20/人",
    "address": "殷高西路218号3楼",
    "regionName": "高境",
    "city": "上海",
    "urlKey": "2025-04-30/dianping/data-l8MrFKgZXVBnv9ml"
  },
  {
    "name": "极狐电竞",
    "lat": 31.264632,
    "lng": 121.349209,
    "phone": "13262597696",
    "priceText": "¥54/人",
    "address": "海川路58弄16号1层05会所107室",
    "regionName": "江桥",
    "city": "上海",
    "urlKey": "2025-04-30/dianping/data-l8KUFoikunDkfEqn"
  },
  {
    "name": "亿网电竞",
    "lat": 31.149647,
    "lng": 121.112074,
    "phone": "13651897913",
    "priceText": "¥28/人",
    "address": "三元路253号116室",
    "regionName": "青浦城区",
    "city": "上海",
    "urlKey": "2025-04-30/dianping/data-l8DbHswG98FnGtCh"
  },
  {
    "name": "网鱼电竞",
    "lat": 31.382414,
    "lng": 121.489464,
    "phone": "19121388325",
    "priceText": "¥31/人",
    "address": "水产路1234号2楼",
    "regionName": "宝山城区/吴淞",
    "city": "上海",
    "urlKey": "2025-04-30/dianping/data-l88OVFedgCZGdpY8"
  },
  {
    "name": "网鱼电竞",
    "lat": 31.186396,
    "lng": 121.457385,
    "phone": "15221523232",
    "priceText": "¥33/人",
    "address": "东安路599号正大乐城2F201商铺（星巴克楼上）",
    "regionName": "龙华/西岸",
    "city": "上海",
    "urlKey": "2025-04-30/dianping/data-l80y72QvKxR4TrYf"
  },
  {
    "name": "网鱼网咖·棋牌",
    "lat": 31.03199,
    "lng": 121.13794,
    "phone": "15317630739",
    "priceText": "¥53/人",
    "address": "鹤溪街50号4-301",
    "regionName": "松江区",
    "city": "上海",
    "urlKey": "2025-04-30/dianping/data-l80u4V00SFzrsAs9"
  },
  {
    "name": "网鱼网咖·棋牌",
    "lat": 31.260271,
    "lng": 121.394546,
    "phone": "13391364919",
    "priceText": "¥33/人",
    "address": "桃浦路328号三楼",
    "regionName": "真如",
    "city": "上海",
    "urlKey": "2025-04-30/dianping/data-l7xiY0vk7pdXBlU1"
  },
  {
    "name": "攻略电竞社·棋牌",
    "lat": 31.235557,
    "lng": 121.437993,
    "phone": "61535376",
    "priceText": "¥50/人",
    "address": "余姚路296号",
    "regionName": "同乐坊/江宁路",
    "city": "上海",
    "urlKey": "2025-04-30/dianping/data-l7udhTFWt216mdC1"
  },
  {
    "name": "王者时代网咖",
    "lat": 31.062154,
    "lng": 121.313934,
    "phone": "18001741809",
    "priceText": "¥130/人",
    "address": "新南街407号三楼",
    "regionName": "新桥",
    "city": "上海",
    "urlKey": "2025-04-30/dianping/data-l7qamtl2nT4X3gXQ"
  },
  {
    "name": "魔兔电竞",
    "lat": 31.188218,
    "lng": 121.705321,
    "phone": "18221904842",
    "priceText": "¥25/人",
    "address": "川沙新镇川环南路401号4幢2楼",
    "regionName": "川沙",
    "city": "上海",
    "urlKey": "2025-04-30/dianping/data-l7m0bQABpa7WyVBB"
  },
  {
    "name": "网鱼电竞",
    "lat": 31.178737,
    "lng": 121.609743,
    "phone": "13651605587",
    "priceText": "¥39/人",
    "address": "荣科路280号2049万科翡翠公园商场2层",
    "regionName": "张江",
    "city": "上海",
    "urlKey": "2025-04-30/dianping/data-l7iao1KqVuSbSGXv"
  },
  {
    "name": "东方电竞 包装城",
    "lat": 31.325588,
    "lng": 121.268468,
    "phone": "13072126331",
    "priceText": "¥29/人",
    "address": "包装城大楼东区二楼",
    "regionName": "马陆镇",
    "city": "上海",
    "urlKey": "2025-04-30/dianping/data-l7Z7vxhF2NE1hPzx"
  },
  {
    "name": "欢鹿土星电竞",
    "lat": 31.310916,
    "lng": 121.453036,
    "phone": "18721825603",
    "priceText": "¥30/人",
    "address": "临汾路706号3楼",
    "regionName": "彭浦新村",
    "city": "上海",
    "urlKey": "2025-04-30/dianping/data-l7XAXSPH92huFCLz"
  },
  {
    "name": "攻略电竞社",
    "lat": 31.267221,
    "lng": 121.478558,
    "phone": "13370096515",
    "priceText": "¥44/人",
    "address": "西江湾路126号2楼",
    "regionName": "虹口足球场/鲁迅公园",
    "city": "上海",
    "urlKey": "2025-04-30/dianping/data-l77i098q4iqeQQfu"
  },
  {
    "name": "网鱼网咖",
    "lat": 31.181377,
    "lng": 121.233598,
    "phone": "18616982068",
    "priceText": "¥43/人",
    "address": "尚泰路482号2楼",
    "regionName": "凤溪",
    "city": "上海",
    "urlKey": "2025-04-30/dianping/data-l739lFH3A7TTohEA"
  },
  {
    "name": "网鱼网咖",
    "lat": 31.202445,
    "lng": 121.419277,
    "phone": "62596215",
    "priceText": "¥17/人",
    "address": "凯旋路1309号433幢2层",
    "regionName": "上海影城/新华路",
    "city": "上海",
    "urlKey": "2025-04-30/dianping/data-l703g8PhApTXOgBK"
  },
  {
    "name": "攻略电竞社",
    "lat": 31.249492,
    "lng": 121.580569,
    "phone": "50757887",
    "priceText": "¥34/人",
    "address": "金杨路528号(近枣庄路)",
    "regionName": "金杨地区",
    "city": "上海",
    "urlKey": "2025-04-30/dianping/data-l6wrPaC2eRohDuHF"
  },
  {
    "name": "网鱼网咖",
    "lat": 31.21478,
    "lng": 121.49063,
    "phone": "63185880",
    "priceText": "¥37/人",
    "address": "中华路1003号底层",
    "regionName": "老西门/陆家浜路",
    "city": "上海",
    "urlKey": "2025-04-30/dianping/data-l6m8zX1Rfudxz5to"
  },
  {
    "name": "部落联盟网咖",
    "lat": 31.368193,
    "lng": 121.430774,
    "phone": "13311860907",
    "priceText": "¥35/人",
    "address": "杨行镇蕰川路1588号2幢106室",
    "regionName": "杨行镇",
    "city": "上海",
    "urlKey": "2025-04-30/dianping/data-l6lqkFunlnRMRj2H"
  },
  {
    "name": "联西电竞",
    "lat": 31.267967,
    "lng": 121.250756,
    "phone": "13761105028",
    "priceText": "¥26/人",
    "address": "联西路60号",
    "regionName": "嘉定区",
    "city": "上海",
    "urlKey": "2025-04-30/dianping/data-l6h07srHcKGri0p1"
  },
  {
    "name": "雏蜂电竞·网咖",
    "lat": 30.915905,
    "lng": 121.489076,
    "phone": "57559568",
    "priceText": "¥25/人",
    "address": "望园南路1588弄29号绿地未来中心2楼223室（蒋记海鲜楼下）",
    "regionName": "南桥",
    "city": "上海",
    "urlKey": "2025-04-30/dianping/data-l6fOGbjJS9ULMK7t"
  },
  {
    "name": "徽盟网咖",
    "lat": 31.193916,
    "lng": 121.184092,
    "phone": "15316821256",
    "priceText": "¥33/人",
    "address": "赵重公路2777弄25号",
    "regionName": "重固镇",
    "city": "上海",
    "urlKey": "2025-04-30/dianping/data-l6cREA62kN4MTM5i"
  },
  {
    "name": "IGAME电竞网咖",
    "lat": 31.243437,
    "lng": 121.678713,
    "phone": "13262769736",
    "priceText": "¥16/人",
    "address": "同景苑云雅路375号",
    "regionName": "迪士尼",
    "city": "上海",
    "urlKey": "2025-04-30/dianping/data-l6ZpLHGmRcHEjyQE"
  },
  {
    "name": "网鱼网咖",
    "lat": 31.209322,
    "lng": 121.520692,
    "phone": "17396582890",
    "priceText": "¥30/人",
    "address": "塘桥街道浦建路111联捷商厦(塘桥社区卫生服务中心西)",
    "regionName": "塘桥",
    "city": "上海",
    "urlKey": "2025-04-30/dianping/data-l6VP6gckE7Aq2o9l"
  },
  {
    "name": "峰鲨电竞.棋牌",
    "lat": 31.266109,
    "lng": 121.582659,
    "phone": "13764826285",
    "priceText": "¥22/人",
    "address": "博兴路458号2楼",
    "regionName": "金桥",
    "city": "上海",
    "urlKey": "2025-04-30/dianping/data-l6S8pL8NPUgffsR6"
  },
  {
    "name": "棣禹DY网咖",
    "lat": 30.961643,
    "lng": 121.403018,
    "phone": "18918932828",
    "priceText": "¥9/人",
    "address": "邬桥安东路183号二楼",
    "regionName": "奉贤区",
    "city": "上海",
    "urlKey": "2025-04-30/dianping/data-l6FyrwDLj1B2fYnF"
  },
  {
    "name": "网鱼网咖",
    "lat": 31.293466,
    "lng": 121.610509,
    "phone": "15316830831",
    "priceText": "¥42/人",
    "address": "东靖路1881号B1 04-01",
    "regionName": "高行",
    "city": "上海",
    "urlKey": "2025-04-30/dianping/data-l68zm0sFIlp7UlFa"
  },
  {
    "name": "虎鲨电竞",
    "lat": 30.968411,
    "lng": 121.738681,
    "phone": "18117150332",
    "priceText": "¥27/人",
    "address": "永春南路403号",
    "regionName": "浦东新区",
    "city": "上海",
    "urlKey": "2025-04-30/dianping/data-l67eIdz8rim3RMWF"
  },
  {
    "name": "网鱼网咖",
    "lat": 31.259053,
    "lng": 121.529442,
    "phone": "17721447783",
    "priceText": "¥22/人",
    "address": "扬州路700号2层",
    "regionName": "平凉路/东外滩",
    "city": "上海",
    "urlKey": "2025-04-30/dianping/data-l63ImRYtNzoAWxgC"
  },
  {
    "name": "网鱼电竞",
    "lat": 31.040104,
    "lng": 121.740904,
    "phone": "13524544433",
    "priceText": "¥29/人",
    "address": "沪南公路9966号",
    "regionName": "惠南镇",
    "city": "上海",
    "urlKey": "2025-04-30/dianping/data-l6046TXzsTDL33nN"
  },
  {
    "name": "网鱼电竞",
    "lat": 31.287326,
    "lng": 121.469422,
    "phone": "15214362302",
    "priceText": "¥33/人",
    "address": "广灵四路532号(518休闲广场电梯上2楼)",
    "regionName": "凉城/江湾镇",
    "city": "上海",
    "urlKey": "2025-04-30/dianping/data-l5zeH2cm3XqwzxoQ"
  },
  {
    "name": "网鱼网咖",
    "lat": 31.216515,
    "lng": 121.371249,
    "phone": "18717953922",
    "priceText": "¥35/人",
    "address": "天山西路237号（华德饭店旁）",
    "regionName": "北新泾/淞虹路",
    "city": "上海",
    "urlKey": "2025-04-30/dianping/data-l5vko2w6B2tIwsSb"
  },
  {
    "name": "网鱼网咖",
    "lat": 31.097611,
    "lng": 121.349142,
    "phone": "18917444448",
    "priceText": "¥44/人",
    "address": "莘松路1266号亚繁亚乐城4层439室",
    "regionName": "新桥",
    "city": "上海",
    "urlKey": "2025-04-30/dianping/data-l5uq59lMgZhcKl07"
  },
  {
    "name": "网鱼电竞",
    "lat": 31.153157,
    "lng": 121.382672,
    "phone": "13585856755",
    "priceText": "¥27/人",
    "address": "龙茗路1706号三楼",
    "regionName": "万源城/东兰路",
    "city": "上海",
    "urlKey": "2025-04-30/dianping/data-l5q8cFrMLOe11H9w"
  },
  {
    "name": "网鱼电竞",
    "lat": 31.234367,
    "lng": 121.419817,
    "phone": "13512131616",
    "priceText": "¥40/人",
    "address": "宁夏路235号2层（曹杨路地铁站2号口步行440米）",
    "regionName": "武宁地区",
    "city": "上海",
    "urlKey": "2025-04-30/dianping/data-l5g9Jrunl8hSyvUh"
  },
  {
    "name": "杰拉电竞•网咖",
    "lat": 30.746335,
    "lng": 121.337405,
    "phone": "15300589183",
    "priceText": "¥20/人",
    "address": "龙翔路905-939号二楼229室",
    "regionName": "欧尚商业中心",
    "city": "上海",
    "urlKey": "2025-04-30/dianping/data-l5fyquwsoMPAL6K5"
  },
  {
    "name": "Lv MAX 蓝胖电竞·棋牌",
    "lat": 31.302798,
    "lng": 121.514891,
    "phone": "18917633389",
    "priceText": "¥40/人",
    "address": "淞沪路98号四楼B区",
    "regionName": "五角场/大学路",
    "city": "上海",
    "urlKey": "2025-04-30/dianping/data-l5UuSf83Y2yUD9nX"
  },
  {
    "name": "攻略电竞社·精选店",
    "lat": 31.234875,
    "lng": 121.433441,
    "phone": "61535327",
    "priceText": "¥42/人",
    "address": "曹家渡街道安远路807号(泰州路)",
    "regionName": "曹家渡",
    "city": "上海",
    "urlKey": "2025-04-30/dianping/data-l5UC8A3tMrpITm6N"
  },
  {
    "name": "网鱼网咖",
    "lat": 31.242757,
    "lng": 121.441457,
    "phone": "18017703106",
    "priceText": "¥36/人",
    "address": "长寿路155号巴黎春天5楼网鱼电竞",
    "regionName": "长寿路",
    "city": "上海",
    "urlKey": "2025-04-30/dianping/data-l5TsbAhOVY7YpPd7"
  },
  {
    "name": "网鱼电竞",
    "lat": 31.274338,
    "lng": 121.514533,
    "phone": "13564199192",
    "priceText": "¥36/人",
    "address": "四平路街道控江路1690号凤凰大厦2楼(吴良材眼镜店隔壁)",
    "regionName": "鞍山新村",
    "city": "上海",
    "urlKey": "2025-04-30/dianping/data-l5DcrsRXhItogOrS"
  },
  {
    "name": "峰鲨电竞",
    "lat": 31.193381,
    "lng": 121.697651,
    "phone": "15921306470",
    "priceText": "¥21/人",
    "address": "川沙路4932号3楼",
    "regionName": "川沙",
    "city": "上海",
    "urlKey": "2025-04-30/dianping/data-l55xVUXcgFuy1neG"
  },
  {
    "name": "网鱼网咖·vision pro",
    "lat": 31.232357,
    "lng": 121.470816,
    "phone": "18116242647",
    "priceText": "¥38/人",
    "address": "南京东路街道南京西路258号1幢5层5F01室",
    "regionName": "人民广场/南京路",
    "city": "上海",
    "urlKey": "2025-04-30/dianping/data-l54FefCggOwi17Zc"
  },
  {
    "name": "摩兔网咖棋牌",
    "lat": 31.138405,
    "lng": 121.412155,
    "phone": "18370356637",
    "priceText": "¥32/人",
    "address": "益文路120弄-13号",
    "regionName": "莲花路/南方商城",
    "city": "上海",
    "urlKey": "2025-04-30/dianping/data-l4zvaIgpgHPCj47j"
  },
  {
    "name": "佳拉网咖",
    "lat": 31.272971,
    "lng": 121.466234,
    "phone": "19711229659",
    "priceText": "¥24/人",
    "address": "同丰路718号102室",
    "regionName": "凉城/江湾镇",
    "city": "上海",
    "urlKey": "2025-04-30/dianping/data-l4zNXJj847Sa3HPh"
  },
  {
    "name": "蓝像素电竞·酒吧·棋牌·欣宇店",
    "lat": 31.042342,
    "lng": 121.407489,
    "phone": "18221165677",
    "priceText": "¥43/人",
    "address": "北桥镇北松公路121号2楼",
    "regionName": "颛桥/北桥",
    "city": "上海",
    "urlKey": "2025-04-30/dianping/data-l4udUdqLNMa3OCsp"
  },
  {
    "name": "E斧电竞",
    "lat": 31.320724,
    "lng": 121.437244,
    "phone": "18917550671",
    "priceText": "¥31/人",
    "address": "共康路450号2F（近长临路口）",
    "regionName": "庙行/共康",
    "city": "上海",
    "urlKey": "2025-04-30/dianping/data-l4qgQ6dthhbbRtbf"
  },
  {
    "name": "古巴电竞",
    "lat": 31.068585,
    "lng": 121.523434,
    "phone": "18321001760",
    "priceText": "¥28/人",
    "address": "康华路86号二楼",
    "regionName": "浦江镇",
    "city": "上海",
    "urlKey": "2025-04-30/dianping/data-l4j4Z20W2YSfHjN6"
  },
  {
    "name": "东升网咖",
    "lat": 31.148472,
    "lng": 121.194894,
    "phone": "19921435837",
    "priceText": "¥36/人",
    "address": "赵兴路182号2楼",
    "regionName": "赵巷镇",
    "city": "上海",
    "urlKey": "2025-04-30/dianping/data-l4XTcrcbvxwUhgwQ"
  },
  {
    "name": "网鱼网咖",
    "lat": 31.197021,
    "lng": 121.511541,
    "phone": "13621785591",
    "priceText": "¥35/人",
    "address": "南码头路街道浦三路24-26号2楼",
    "regionName": "临沂/南码头",
    "city": "上海",
    "urlKey": "2025-04-30/dianping/data-l4WxX3ynus8nkeUl"
  },
  {
    "name": "PK电竞",
    "lat": 31.025545,
    "lng": 121.296365,
    "phone": "18916033107",
    "priceText": "",
    "address": "车墩镇南乐路456号4幢三层1301、1302、1318室",
    "regionName": "车墩影视城",
    "city": "上海",
    "urlKey": "2025-04-30/dianping/data-l4V2A9R8lbp07P0A"
  },
  {
    "name": "网鱼电竞",
    "lat": 31.402668,
    "lng": 121.350948,
    "phone": "13774260525",
    "priceText": "¥29/人",
    "address": "罗芬路1088号4号楼407（世纪联华4F）",
    "regionName": "美兰湖",
    "city": "上海",
    "urlKey": "2025-04-30/dianping/data-l4JyK5uDkHL5HJvv"
  },
  {
    "name": "中数电竞",
    "lat": 31.2452,
    "lng": 121.55458,
    "phone": "58522324",
    "priceText": "¥27/人",
    "address": "崮山路327号2楼",
    "regionName": "洋泾",
    "city": "上海",
    "urlKey": "2025-04-30/dianping/data-l4G3fnqTj5iMRKu7"
  },
  {
    "name": "PLAY电竞",
    "lat": 30.915406,
    "lng": 121.459154,
    "phone": "17321268126",
    "priceText": "¥10/人",
    "address": "解放中路386号",
    "regionName": "南桥",
    "city": "上海",
    "urlKey": "2025-04-30/dianping/data-l492SDx4Q7bJ7AX1"
  },
  {
    "name": "网鱼电竞",
    "lat": 30.886154,
    "lng": 121.166804,
    "phone": "18121452393",
    "priceText": "¥35/人",
    "address": "金龙新街598号",
    "regionName": "朱泾镇",
    "city": "上海",
    "urlKey": "2025-04-30/dianping/data-l45AFikwkiRev2QI"
  },
  {
    "name": "网鱼网咖",
    "lat": 31.239746,
    "lng": 121.323981,
    "phone": "18717984405",
    "priceText": "¥33/人",
    "address": "华江路850弄万达金街42-46号2楼",
    "regionName": "江桥",
    "city": "上海",
    "urlKey": "2025-04-30/dianping/data-l433G87eO3Q8997J"
  },
  {
    "name": "第九纬度电竞",
    "lat": 31.238798,
    "lng": 121.441808,
    "phone": "18721825961",
    "priceText": "¥37/人",
    "address": "安远路435号地下一层B1",
    "regionName": "同乐坊/江宁路",
    "city": "上海",
    "urlKey": "2025-04-30/dianping/data-l3vC5p5meV0Yfmzp"
  },
  {
    "name": "蜂鸟电竞",
    "lat": 31.159884,
    "lng": 121.111822,
    "phone": "18721378386",
    "priceText": "¥36/人",
    "address": "盈港路635-641号",
    "regionName": "青浦城区",
    "city": "上海",
    "urlKey": "2025-04-30/dianping/data-l3v7cNsG5rBx64Ae"
  },
  {
    "name": "辰恺电竞",
    "lat": 31.302364,
    "lng": 121.485725,
    "phone": "15000346796",
    "priceText": "¥33/人",
    "address": "万安路243号辰恺网咖（江湾镇地铁站5号口步行300米）",
    "regionName": "凉城/江湾镇",
    "city": "上海",
    "urlKey": "2025-04-30/dianping/data-l3nqDa9iqRtRMOIs"
  },
  {
    "name": "网鱼网咖",
    "lat": 31.205343,
    "lng": 121.466864,
    "phone": "64661006",
    "priceText": "¥44/人",
    "address": "肇嘉浜路10号2楼(近瑞金二路)",
    "regionName": "打浦桥/田子坊",
    "city": "上海",
    "urlKey": "2025-04-30/dianping/data-l3lDWCaWH6TwhVWR"
  },
  {
    "name": "魔神电竞",
    "lat": 31.138092,
    "lng": 121.356321,
    "phone": "19280795282",
    "priceText": "¥26/人",
    "address": "华林路217号2楼",
    "regionName": "七宝",
    "city": "上海",
    "urlKey": "2025-04-30/dianping/data-l3kYrD5AijDO6RSm"
  },
  {
    "name": "绮梦网咖·棋牌·台球",
    "lat": 31.385556,
    "lng": 121.363489,
    "phone": "15601855268",
    "priceText": "¥8/人",
    "address": "东太路259弄1号2层（东太路罗南菜市场二楼）",
    "regionName": "美兰湖",
    "city": "上海",
    "urlKey": "2025-04-30/dianping/data-l3hzkZ1ZgxQvZ4Pq"
  },
  {
    "name": "网鱼网咖",
    "lat": 31.275967,
    "lng": 121.542755,
    "phone": "13391073693",
    "priceText": "¥40/人",
    "address": "隆昌路610号3楼",
    "regionName": "平凉路/东外滩",
    "city": "上海",
    "urlKey": "2025-04-30/dianping/data-l39BLrxIGFcD0qsD"
  },
  {
    "name": "网鱼网咖",
    "lat": 31.230071,
    "lng": 121.518051,
    "phone": "18117597840",
    "priceText": "¥35/人",
    "address": "陆家嘴街道商城路618号良友大厦B1",
    "regionName": "八佰伴",
    "city": "上海",
    "urlKey": "2025-04-30/dianping/data-l37yWJgixDklcA0m"
  },
  {
    "name": "网鱼网咖",
    "lat": 31.112161,
    "lng": 121.273805,
    "phone": "17395892102",
    "priceText": "¥14/人",
    "address": "开江二路10号3楼",
    "regionName": "泗泾镇",
    "city": "上海",
    "urlKey": "2025-04-30/dianping/data-l2zG4blr5b611Y8J"
  },
  {
    "name": "魔神电竞",
    "lat": 31.383331,
    "lng": 121.24776,
    "phone": "15221084217",
    "priceText": "¥23/人",
    "address": "城中路149号（嘉定影院正门侧面电梯）",
    "regionName": "嘉定镇",
    "city": "上海",
    "urlKey": "2025-04-30/dianping/data-l2yRfZpRtGgx1Vl5"
  },
  {
    "name": "魔兔网咖",
    "lat": 31.265691,
    "lng": 121.657466,
    "phone": "",
    "priceText": "¥44/人",
    "address": "金海路2668弄1号楼2楼",
    "regionName": "曹路",
    "city": "上海",
    "urlKey": "2025-04-30/dianping/data-l2vYpmnYj6r5Q5zz"
  },
  {
    "name": "熊猫网咖",
    "lat": 31.290093,
    "lng": 121.623633,
    "phone": "",
    "priceText": "¥34/人",
    "address": "高宝路404号",
    "regionName": "高行",
    "city": "上海",
    "urlKey": "2025-04-30/dianping/data-l2tNEJd5LI6U0Ydd"
  },
  {
    "name": "网鱼电竞",
    "lat": 31.093965,
    "lng": 121.492087,
    "phone": "18917110871",
    "priceText": "¥35/人",
    "address": "浦锦街道浦锦路1293号D栋2楼201",
    "regionName": "浦江镇",
    "city": "上海",
    "urlKey": "2025-04-30/dianping/data-l2mcVPeoILnuaMDx"
  },
  {
    "name": "金汇网咖",
    "lat": 31.140132,
    "lng": 121.325531,
    "phone": "18918061602",
    "priceText": "¥22/人",
    "address": "九亭U天地1号楼2层228室（电影院对面、理发店旁）",
    "regionName": "九亭",
    "city": "上海",
    "urlKey": "2025-04-30/dianping/data-l2hRAzQ1YkKpMNiM"
  },
  {
    "name": "金汇网咖棋牌",
    "lat": 31.107238,
    "lng": 121.312866,
    "phone": "18939921817",
    "priceText": "¥21/人",
    "address": "九亭镇九亭同利路133号2幢",
    "regionName": "九亭",
    "city": "上海",
    "urlKey": "2025-04-30/dianping/data-l2gark4SLl9q1tq5"
  },
  {
    "name": "乐乐电竞",
    "lat": 31.204144,
    "lng": 121.683624,
    "phone": "13651636853",
    "priceText": "¥35/人",
    "address": "利川路481弄1号2层",
    "regionName": "川沙",
    "city": "上海",
    "urlKey": "2025-04-30/dianping/data-l2gByUiSUOfx9kFa"
  },
  {
    "name": "悟空电竞",
    "lat": 31.126486,
    "lng": 121.216724,
    "phone": "19261291915",
    "priceText": "¥34/人",
    "address": "陆宝山路771号",
    "regionName": "佘山",
    "city": "上海",
    "urlKey": "2025-04-30/dianping/data-l2d0ZpEsYpYDdRY6"
  },
  {
    "name": "乐乐电竞·棋牌·台球",
    "lat": 31.238095,
    "lng": 121.669285,
    "phone": "18221290856",
    "priceText": "¥34/人",
    "address": "卡园二路108号9幢北楼119 120,123室",
    "regionName": null,
    "city": "上海",
    "urlKey": "2025-04-30/dianping/data-l2b42zbJdURUfbpK"
  },
  {
    "name": "CK电竞",
    "lat": 31.155422,
    "lng": 121.346928,
    "phone": "18019235855",
    "priceText": "¥42/人",
    "address": "七莘路3011号七宝商城110",
    "regionName": "七宝",
    "city": "上海",
    "urlKey": "2025-04-30/dianping/data-l2ZsZyg5agODxPx4"
  },
  {
    "name": "夕阳电竞",
    "lat": 31.136731,
    "lng": 121.413416,
    "phone": "19121325745",
    "priceText": "¥21/人",
    "address": "虹梅南路梅陇一村103号",
    "regionName": "莲花路/南方商城",
    "city": "上海",
    "urlKey": "2025-04-30/dianping/data-l2XuyBI0mBHG9f5o"
  },
  {
    "name": "网鱼网咖",
    "lat": 31.113713,
    "lng": 121.566888,
    "phone": "19370928930",
    "priceText": "¥41/人",
    "address": "沪南公路3468弄1支弄29号",
    "regionName": "康桥/周浦",
    "city": "上海",
    "urlKey": "2025-04-30/dianping/data-l2WqpNRAgMU5iETz"
  },
  {
    "name": "夕阳电竞",
    "lat": 31.008196,
    "lng": 121.234116,
    "phone": "18964211021",
    "priceText": "¥22/人",
    "address": "中山中路196弄43号2层201、202、209、210、211",
    "regionName": "中山中路",
    "city": "上海",
    "urlKey": "2025-04-30/dianping/data-l2OLGTRuT6TmVXB9"
  },
  {
    "name": "极狐电竞",
    "lat": 31.084995,
    "lng": 121.502304,
    "phone": "13255170908",
    "priceText": "¥22/人",
    "address": "浦申路733号2楼",
    "regionName": "浦江镇",
    "city": "上海",
    "urlKey": "2025-04-30/dianping/data-l2MqRgcCGAeViyQf"
  },
  {
    "name": "徽盟电竞",
    "lat": 31.062174,
    "lng": 121.311005,
    "phone": "18017077757",
    "priceText": "¥25/人",
    "address": "新南街538号2楼",
    "regionName": "新桥",
    "city": "上海",
    "urlKey": "2025-04-30/dianping/data-l2MjLwyBZiEhvIIl"
  },
  {
    "name": "第九维度电竞",
    "lat": 31.16119,
    "lng": 121.497271,
    "phone": "15601862121",
    "priceText": "¥27/人",
    "address": "上南路3074号（近杨思路）",
    "regionName": "三林地区",
    "city": "上海",
    "urlKey": "2025-04-30/dianping/data-l2EP3UWiSBPSboBt"
  },
  {
    "name": "金汇电竞",
    "lat": 31.167211,
    "lng": 121.279436,
    "phone": "18917313081",
    "priceText": "¥45/人",
    "address": "沪青平路公路1899号2幢210室（莱伊份旁8号电梯上二楼）",
    "regionName": "徐泾",
    "city": "上海",
    "urlKey": "2025-04-30/dianping/data-l2BMEkTBl8P4144G"
  },
  {
    "name": "杰拉电竞·网咖",
    "lat": 30.729444,
    "lng": 121.335779,
    "phone": "17521780043",
    "priceText": "¥28/人",
    "address": "卫零路751号3楼",
    "regionName": "金山卫",
    "city": "上海",
    "urlKey": "2025-04-30/dianping/data-l2AVbixo74PEJBQB"
  },
  {
    "name": "网鱼网咖·棋牌",
    "lat": 31.281035,
    "lng": 121.347768,
    "phone": "15618460019",
    "priceText": "¥38/人",
    "address": "武威路1285号新邻天地三楼",
    "regionName": "桃浦",
    "city": "上海",
    "urlKey": "2025-04-30/dianping/data-l24gVObrY4gUjuOn"
  },
  {
    "name": "汇金网咖",
    "lat": 30.959798,
    "lng": 121.494906,
    "phone": "15338019249",
    "priceText": "¥25/人",
    "address": "嘉园路360弄21号301室",
    "regionName": "金汇镇",
    "city": "上海",
    "urlKey": "2025-04-30/dianping/data-l24HLfc0E7bdSQPe"
  },
  {
    "name": "玩嘿电竞",
    "lat": 31.114983,
    "lng": 121.578423,
    "phone": "17717430265",
    "priceText": "¥31/人",
    "address": "年家浜路329号4楼",
    "regionName": "康桥/周浦",
    "city": "上海",
    "urlKey": "2025-04-30/dianping/data-l234f66l3MnFxx1F"
  },
  {
    "name": "夕阳电竞",
    "lat": 31.231133,
    "lng": 121.408591,
    "phone": "19921809648",
    "priceText": "¥32/人",
    "address": "金沙江路69号底层-1",
    "regionName": "月星环球港",
    "city": "上海",
    "urlKey": "2025-04-30/dianping/data-l1zWwoEyuvFZ8G4D"
  },
  {
    "name": "网鱼电竞",
    "lat": 31.127081,
    "lng": 121.573281,
    "phone": "15901915179",
    "priceText": "¥32/人",
    "address": "秀浦路886号擅达广场三楼",
    "regionName": "康桥/周浦",
    "city": "上海",
    "urlKey": "2025-04-30/dianping/data-l1zJMwxPvZ8U1rq3"
  },
  {
    "name": "网鱼网咖",
    "lat": 31.193032,
    "lng": 121.555792,
    "phone": "17621422334",
    "priceText": "¥34/人",
    "address": "芳草路244号-246号底层",
    "regionName": "北蔡",
    "city": "上海",
    "urlKey": "2025-04-30/dianping/data-l1ra8Idg6O2UVTYz"
  },
  {
    "name": "网鱼电竞",
    "lat": 31.165495,
    "lng": 121.223775,
    "phone": "15201760576",
    "priceText": "¥23/人",
    "address": "赵巷镇嘉松中路5386弄绿洲智谷花园里北区L2层网鱼电竞",
    "regionName": "赵巷镇",
    "city": "上海",
    "urlKey": "2025-04-30/dianping/data-l1qOvyWQLCden3mq"
  },
  {
    "name": "网鱼网咖",
    "lat": 30.755461,
    "lng": 121.336301,
    "phone": "67322072",
    "priceText": "¥26/人",
    "address": "海汇街618号2066-2072室（金山万达广场金街十字路口2楼）",
    "regionName": "金山卫",
    "city": "上海",
    "urlKey": "2025-04-30/dianping/data-l1kgdsP8kgy3JKDM"
  },
  {
    "name": "宜度电竞台球卓威店",
    "lat": 31.346237,
    "lng": 121.353413,
    "phone": "66866377",
    "priceText": "¥31/人",
    "address": "菊太路1413-1421号",
    "regionName": "顾村公园",
    "city": "上海",
    "urlKey": "2025-04-30/dianping/data-l1hE04RHxkRbsGMp"
  },
  {
    "name": "网鱼网咖·棋牌",
    "lat": 31.401502,
    "lng": 121.247402,
    "phone": "17349777684",
    "priceText": "¥31/人",
    "address": "柳湖路305-313室",
    "regionName": "嘉定镇",
    "city": "上海",
    "urlKey": "2025-04-30/dianping/data-l1UdZ6QIrxMjEKbc"
  },
  {
    "name": "网鱼电竞",
    "lat": 31.288738,
    "lng": 121.442119,
    "phone": "17717536756",
    "priceText": "¥28/人",
    "address": "万荣路977号2F",
    "regionName": "彭浦镇",
    "city": "上海",
    "urlKey": "2025-04-30/dianping/data-l1N3Hs53tAF9MvD9"
  },
  {
    "name": "君发棋牌·网咖电竞",
    "lat": 31.343891,
    "lng": 121.399476,
    "phone": "13052086826",
    "priceText": "¥37/人",
    "address": "顾村镇顾太路98号-17号",
    "regionName": "顾村公园",
    "city": "上海",
    "urlKey": "2025-04-30/dianping/data-l1LOF15gD3kjPLcj"
  },
  {
    "name": "网鱼网咖",
    "lat": 31.13582,
    "lng": 121.36313,
    "phone": "13472788541",
    "priceText": "¥21/人",
    "address": "七莘路1712、1714、1716、1718号二楼1716号三楼",
    "regionName": "七宝",
    "city": "上海",
    "urlKey": "2025-04-30/dianping/data-l1CTRdpRdu8RdbCM"
  },
  {
    "name": "乐鑫网咖",
    "lat": 30.887011,
    "lng": 121.168541,
    "phone": "18116355154",
    "priceText": "",
    "address": "金龙新街528弄6110号",
    "regionName": "朱泾镇",
    "city": "上海",
    "urlKey": "2025-04-30/dianping/data-l16vZdVR74YvDcSg"
  },
  {
    "name": "红猫电竞·台球·棋牌",
    "lat": 31.385595,
    "lng": 121.363545,
    "phone": "15601855268",
    "priceText": "¥17/人",
    "address": "罗店镇东太路259弄1号2层(东太路罗南菜市场二楼)",
    "regionName": "美兰湖",
    "city": "上海",
    "urlKey": "2025-04-30/dianping/data-kaw5pm3zT8r1aHeH"
  },
  {
    "name": "勇网直前电竞·台球·棋牌",
    "lat": 31.301656,
    "lng": 121.422556,
    "phone": "13162017668",
    "priceText": "¥34/人",
    "address": "界华路98号",
    "regionName": "上海大学",
    "city": "上海",
    "urlKey": "2025-04-30/dianping/data-kauNljYXVnR0gSUN"
  },
  {
    "name": "飞鱼网咖",
    "lat": 31.113608,
    "lng": 121.263385,
    "phone": "19569715478",
    "priceText": "¥25/人",
    "address": "泗凤路158号2楼",
    "regionName": "泗泾镇",
    "city": "上海",
    "urlKey": "2025-04-30/dianping/data-karXl8xm30kg2wgg"
  },
  {
    "name": "王者电竞",
    "lat": 31.254821,
    "lng": 121.612331,
    "phone": "19370955686",
    "priceText": "¥35/人",
    "address": "金港路333号禹州国际一期2层",
    "regionName": "金桥",
    "city": "上海",
    "urlKey": "2025-04-30/dianping/data-kapU31R1OJb1zNQg"
  },
  {
    "name": "网鱼网咖",
    "lat": 31.209467,
    "lng": 121.551357,
    "phone": "17821917443",
    "priceText": "¥36/人",
    "address": "海桐路338号2层（世纪公园世纪联华）",
    "regionName": "世纪公园/科技馆",
    "city": "上海",
    "urlKey": "2025-04-30/dianping/data-kamYGaGjE2NhL07A"
  },
  {
    "name": "中数棋牌·电竞网咖",
    "lat": 31.240609,
    "lng": 121.559051,
    "phone": "58331621",
    "priceText": "¥26/人",
    "address": "崮山路648号2楼",
    "regionName": "洋泾",
    "city": "上海",
    "urlKey": "2025-04-30/dianping/data-kalNtLJ4WFhurKIn"
  },
  {
    "name": "网鱼网咖",
    "lat": 31.320117,
    "lng": 121.469948,
    "phone": "13764926796",
    "priceText": "¥44/人",
    "address": "殷高西路555号2楼（江杨南路宝象车行楼上）",
    "regionName": "高境",
    "city": "上海",
    "urlKey": "2025-04-30/dianping/data-kadZ6kL5pUdGMXDD"
  },
  {
    "name": "网鱼网咖",
    "lat": 31.268214,
    "lng": 121.609391,
    "phone": "15221338755",
    "priceText": "¥33/人",
    "address": "金高路1786号（金桥文体中心对面）",
    "regionName": "金桥",
    "city": "上海",
    "urlKey": "2025-04-30/dianping/data-kaaT8wZddJd3WRGe"
  },
  {
    "name": "嘉草网咖棋牌",
    "lat": 31.217467,
    "lng": 121.483027,
    "phone": "53865808",
    "priceText": "¥34/人",
    "address": "复兴中路1号卢湾国际广场B1层",
    "regionName": "老西门/陆家浜路",
    "city": "上海",
    "urlKey": "2025-04-30/dianping/data-kaVGpeAEGbevfL1u"
  },
  {
    "name": "万鱼网咖",
    "lat": 31.254677,
    "lng": 121.334907,
    "phone": "59166090",
    "priceText": "¥16/人",
    "address": "靖远路698号",
    "regionName": "江桥",
    "city": "上海",
    "urlKey": "2025-04-30/dianping/data-kaK1bbUdPMviMr8d"
  },
  {
    "name": "亿晟网咖",
    "lat": 31.22801,
    "lng": 121.22788,
    "phone": "13341798285",
    "priceText": "¥26/人",
    "address": "新府中路1399弄光明荟113号",
    "regionName": "华新镇",
    "city": "上海",
    "urlKey": "2025-04-30/dianping/data-kaJ07SEsj26C5vEi"
  },
  {
    "name": "古巴电竞",
    "lat": 31.268828,
    "lng": 121.300478,
    "phone": "18901805309",
    "priceText": "¥19/人",
    "address": "星华公路1572号",
    "regionName": "封浜镇",
    "city": "上海",
    "urlKey": "2025-04-30/dianping/data-kaInS6eKVWEsBpbX"
  },
  {
    "name": "杰拉电竞•网咖",
    "lat": 31.134977,
    "lng": 121.316506,
    "phone": "15021808630",
    "priceText": "¥32/人",
    "address": "九新公路11弄13号3楼",
    "regionName": "九亭",
    "city": "上海",
    "urlKey": "2025-04-30/dianping/data-kaEmiElD08yV9yCV"
  },
  {
    "name": "玩嘿电竞(航头店)",
    "lat": 31.077562,
    "lng": 121.593367,
    "phone": "18916004243",
    "priceText": "¥30/人",
    "address": "鹤雷路269号2号楼309室",
    "regionName": "迪士尼",
    "city": "上海",
    "urlKey": "2025-04-30/dianping/data-ka78SjTOiQXRPuRZ"
  },
  {
    "name": "姚江缘网咖",
    "lat": 31.286433,
    "lng": 121.470101,
    "phone": "13818350886",
    "priceText": "¥110/人",
    "address": "凉城路395号2层",
    "regionName": "凉城/江湾镇",
    "city": "上海",
    "urlKey": "2025-04-30/dianping/data-ka1AFipAXHPW8Bjd"
  },
  {
    "name": "攻略电竞社",
    "lat": 31.288042,
    "lng": 121.442352,
    "phone": "66770288",
    "priceText": "¥46/人",
    "address": "万荣路959号地下一层（海友酒店大堂进）",
    "regionName": "大宁地区",
    "city": "上海",
    "urlKey": "2025-04-30/dianping/data-ka02GBRlj9NuqvWs"
  },
  {
    "name": "杰拉电竞·网咖",
    "lat": 31.338469,
    "lng": 121.457375,
    "phone": "18516791207",
    "priceText": "¥30/人",
    "address": "虎林路501号二楼",
    "regionName": "通河/泗塘",
    "city": "上海",
    "urlKey": "2025-04-30/dianping/data-k9t8VTmZPhxhabG5"
  },
  {
    "name": "网鱼网咖",
    "lat": 31.159832,
    "lng": 121.125665,
    "phone": "18221207821",
    "priceText": "¥27/人",
    "address": "外青松公路5999弄2号2层203号-204号",
    "regionName": "青浦城区",
    "city": "上海",
    "urlKey": "2025-04-30/dianping/data-k9pf9oZE2EmeySzM"
  },
  {
    "name": "金成网吧",
    "lat": 31.417484,
    "lng": 121.354739,
    "phone": "13162215053",
    "priceText": "",
    "address": "集贤路150弄32-33号",
    "regionName": "美兰湖",
    "city": "上海",
    "urlKey": "2025-04-30/dianping/data-k9lFTuYCjxuGXcTc"
  },
  {
    "name": "杰拉电竞•网咖",
    "lat": 31.294801,
    "lng": 121.513407,
    "phone": "18930998132",
    "priceText": "¥33/人",
    "address": "四平路2152号一层",
    "regionName": "五角场/大学路",
    "city": "上海",
    "urlKey": "2025-04-30/dianping/data-k9iw0TrvNiSuJsH6"
  },
  {
    "name": "亮区网咖",
    "lat": 31.193444,
    "lng": 121.185224,
    "phone": "15821620332",
    "priceText": "¥18/人",
    "address": "赵重公路2777弄2765号",
    "regionName": "重固镇",
    "city": "上海",
    "urlKey": "2025-04-30/dianping/data-k9etSUyoeT4gAgnW"
  },
  {
    "name": "魔都网咖",
    "lat": 31.417021,
    "lng": 121.377964,
    "phone": "18301731827",
    "priceText": "¥13/人",
    "address": "月罗公路1550号2楼",
    "regionName": "美兰湖",
    "city": "上海",
    "urlKey": "2025-04-30/dianping/data-k9GDrOG48na5yG9Z"
  },
  {
    "name": "网鱼网咖",
    "lat": 31.244149,
    "lng": 121.357958,
    "phone": "18616537912",
    "priceText": "¥42/人",
    "address": "真新街道新郁路179号203室、189-1号（靠近金沙江路清峪路）",
    "regionName": "丰庄",
    "city": "上海",
    "urlKey": "2025-04-30/dianping/data-k9FOzazf0mIwHrSo"
  },
  {
    "name": "虎鲨电竞",
    "lat": 30.911884,
    "lng": 121.801951,
    "phone": "18901848846",
    "priceText": "¥29/人",
    "address": "抱雪路166号",
    "regionName": "滴水湖临港地区",
    "city": "上海",
    "urlKey": "2025-04-30/dianping/data-k9F2EbiikOzijdO4"
  },
  {
    "name": "网鱼网咖",
    "lat": 31.041281,
    "lng": 121.531951,
    "phone": "13764898773",
    "priceText": "¥27/人",
    "address": "浦航路728弄15号2楼（浦航路地铁站2号口步行170米）",
    "regionName": "浦江镇",
    "city": "上海",
    "urlKey": "2025-04-30/dianping/data-k985aiYTIo5rny2v"
  },
  {
    "name": "网鱼电竞",
    "lat": 31.08363,
    "lng": 121.504621,
    "phone": "18817327703",
    "priceText": "¥28/人",
    "address": "浦锦街道江月路1850号浦江城市生活广场F4层",
    "regionName": "浦江镇",
    "city": "上海",
    "urlKey": "2025-04-30/dianping/data-k97HnhsKQ3mDjjUi"
  },
  {
    "name": "LEGO RACE",
    "lat": 31.222808,
    "lng": 121.395746,
    "phone": "",
    "priceText": "¥965/人",
    "address": "大渡河路178号长风大悦城F2层",
    "regionName": "长风公园/华师大",
    "city": "上海",
    "urlKey": "2025-04-30/dianping/data-k96LTuxAXbt0xfPV"
  },
  {
    "name": "速8网咖",
    "lat": 31.142073,
    "lng": 121.310724,
    "phone": "16601993460",
    "priceText": "¥34/人",
    "address": "越联路6号2层201（九杜路与越联路交叉口）",
    "regionName": "九亭",
    "city": "上海",
    "urlKey": "2025-04-30/dianping/data-k95rAxzq77qY9sE0"
  },
  {
    "name": "鋆夏网咖",
    "lat": 31.300091,
    "lng": 121.588591,
    "phone": "18916091189",
    "priceText": "¥17/人",
    "address": "张扬北路2507号阳光城自由区2F号",
    "regionName": "高行",
    "city": "上海",
    "urlKey": "2025-04-30/dianping/data-k90GxoQyTA8swPbL"
  },
  {
    "name": "网鱼网咖",
    "lat": 31.205756,
    "lng": 121.390036,
    "phone": "13391134932",
    "priceText": "¥32/人",
    "address": "仙霞新村街道仙霞路606号2层",
    "regionName": "虹桥/古北",
    "city": "上海",
    "urlKey": "2025-04-30/dianping/data-k8zVEbcgMxS3iV5y"
  },
  {
    "name": "乐空间电竞",
    "lat": 31.336428,
    "lng": 121.282478,
    "phone": "17301827851",
    "priceText": "",
    "address": "弘基广场6号",
    "regionName": "马陆镇",
    "city": "上海",
    "urlKey": "2025-04-30/dianping/data-k8xhIizW57bvJHIc"
  },
  {
    "name": "龙珠网咖",
    "lat": 31.623674,
    "lng": 121.396514,
    "phone": "17721209110",
    "priceText": "¥42/人",
    "address": "八一路338号",
    "regionName": "南门",
    "city": "上海",
    "urlKey": "2025-04-30/dianping/data-k8kFKBW9pp0VLkVH"
  },
  {
    "name": "虎鲨电竞",
    "lat": 30.923853,
    "lng": 121.583061,
    "phone": "13386175638",
    "priceText": "¥15/人",
    "address": "南奉公路2742号",
    "regionName": "青村",
    "city": "上海",
    "urlKey": "2025-04-30/dianping/data-k8RJW169dXQ4807T"
  },
  {
    "name": "魔兔网咖",
    "lat": 31.154607,
    "lng": 121.492538,
    "phone": "18717776522",
    "priceText": "¥28/人",
    "address": "海阳路437号",
    "regionName": "三林地区",
    "city": "上海",
    "urlKey": "2025-04-30/dianping/data-k8FgfKrzMtiFmr6R"
  },
  {
    "name": "网鱼网咖",
    "lat": 31.024616,
    "lng": 121.386678,
    "phone": "15021414869",
    "priceText": "¥29/人",
    "address": "银春路2221号星悦荟2层",
    "regionName": "闵行开发区",
    "city": "上海",
    "urlKey": "2025-04-30/dianping/data-k8CTPjJ5B4dFJ3eV"
  },
  {
    "name": "PLAY电竞",
    "lat": 30.908501,
    "lng": 121.452135,
    "phone": "13045630132",
    "priceText": "¥111/人",
    "address": "南桥镇菜场二支路8号",
    "regionName": "南桥",
    "city": "上海",
    "urlKey": "2025-04-30/dianping/data-k803uCEmqkd2TwcH"
  },
  {
    "name": "网鱼电竞·棋牌",
    "lat": 31.05821,
    "lng": 121.24268,
    "phone": "15921428518",
    "priceText": "¥40/人",
    "address": "广富林路658弄万达广场金街82号二层（万达5号口侧边）",
    "regionName": "松江万达广场",
    "city": "上海",
    "urlKey": "2025-04-30/dianping/data-k7wCjzJsy4hoJNXQ"
  },
  {
    "name": "网鱼电竞",
    "lat": 31.1131,
    "lng": 121.26273,
    "phone": "18916069749",
    "priceText": "¥34/人",
    "address": "泗凤公路149-151号",
    "regionName": "泗泾镇",
    "city": "上海",
    "urlKey": "2025-04-30/dianping/data-k7o4RBKZJi9Bvz64"
  },
  {
    "name": "网鱼电竞",
    "lat": 31.287862,
    "lng": 121.164121,
    "phone": "13641822976",
    "priceText": "¥31/人",
    "address": "墨玉南路1080号曼度泛乐城3楼",
    "regionName": "安亭嘉亭荟",
    "city": "上海",
    "urlKey": "2025-04-30/dianping/data-k7mbeBsBW2A7Aq9M"
  },
  {
    "name": "网鱼网咖",
    "lat": 31.160054,
    "lng": 121.398823,
    "phone": "13817807743",
    "priceText": "¥31/人",
    "address": "古美路1487弄10、12、14号1层",
    "regionName": "万源城/东兰路",
    "city": "上海",
    "urlKey": "2025-04-30/dianping/data-k7iB8EdvXmPZt2vi"
  },
  {
    "name": "网e网咖",
    "lat": 31.23582,
    "lng": 121.31238,
    "phone": "13916947700",
    "priceText": "¥15/人",
    "address": "鹤芳路80-86号2楼",
    "regionName": "江桥",
    "city": "上海",
    "urlKey": "2025-04-30/dianping/data-k7XtuHSeePA22pPZ"
  },
  {
    "name": "嘉草网络",
    "lat": 31.206516,
    "lng": 121.476435,
    "phone": "53016809",
    "priceText": "¥32/人",
    "address": "丽园路820号3楼",
    "regionName": "打浦桥/田子坊",
    "city": "上海",
    "urlKey": "2025-04-30/dianping/data-k7MTai11CptAkqaI"
  },
  {
    "name": "辉腾网咖",
    "lat": 31.211717,
    "lng": 121.359131,
    "phone": "52907578",
    "priceText": "¥30/人",
    "address": "福泉路222号2楼",
    "regionName": "北新泾/淞虹路",
    "city": "上海",
    "urlKey": "2025-04-30/dianping/data-k7JXNxoYw0Vmf4aq"
  },
  {
    "name": "魔兔网咖·棋牌",
    "lat": 31.142706,
    "lng": 121.496303,
    "phone": "18717967484",
    "priceText": "¥38/人",
    "address": "长清路1911号2楼",
    "regionName": "三林地区",
    "city": "上海",
    "urlKey": "2025-04-30/dianping/data-k7HaECgQYX68wgmK"
  },
  {
    "name": "B11电竞",
    "lat": 31.326767,
    "lng": 121.267477,
    "phone": "13311877338",
    "priceText": "¥34/人",
    "address": "宝安公路3718号莘潮国际家居商场2楼（麦德龙超市楼上）",
    "regionName": "嘉定新城",
    "city": "上海",
    "urlKey": "2025-04-30/dianping/data-k7FmAFoNKXOuSxSE"
  },
  {
    "name": "网鱼电竞",
    "lat": 31.189015,
    "lng": 121.687758,
    "phone": "13621812526",
    "priceText": "¥32/人",
    "address": "川沙新镇新川路981-983号1-2层",
    "regionName": "川沙",
    "city": "上海",
    "urlKey": "2025-04-30/dianping/data-k7ExdF351UBX1Rwx"
  },
  {
    "name": "宏大网咖棋牌",
    "lat": 31.237984,
    "lng": 121.682932,
    "phone": "18049995097",
    "priceText": "¥25/人",
    "address": "虹盛东路7号2楼",
    "regionName": "迪士尼",
    "city": "上海",
    "urlKey": "2025-04-30/dianping/data-k77SMjN6IkNeCNNi"
  },
  {
    "name": "轩浩网吧",
    "lat": 31.270693,
    "lng": 121.654533,
    "phone": "19117389527",
    "priceText": "¥109/人",
    "address": "民耀路397号2楼",
    "regionName": "曹路",
    "city": "上海",
    "urlKey": "2025-04-30/dianping/data-k72y8Ni9SK7qzNFj"
  },
  {
    "name": "网e网咖",
    "lat": 31.228103,
    "lng": 121.427917,
    "phone": "13916947700",
    "priceText": "¥17/人",
    "address": "长宁路63号4楼（57-59号弄内4楼）",
    "regionName": "曹家渡",
    "city": "上海",
    "urlKey": "2025-04-30/dianping/data-k6sk2USexTETtkQJ"
  },
  {
    "name": "乐乐电竞",
    "lat": 31.152074,
    "lng": 121.313805,
    "phone": "18019319547",
    "priceText": "¥24/人",
    "address": "涞坊路417号",
    "regionName": "九亭",
    "city": "上海",
    "urlKey": "2025-04-30/dianping/data-k6UPVFHyQZSSjGu5"
  },
  {
    "name": "飓峰电竞棋牌",
    "lat": 31.119313,
    "lng": 121.550636,
    "phone": "13651885571",
    "priceText": "¥22/人",
    "address": "上南路6453号",
    "regionName": "康桥/周浦",
    "city": "上海",
    "urlKey": "2025-04-30/dianping/data-k6FnXbLyXgsZ2kpQ"
  },
  {
    "name": "欢鹿土星电竞",
    "lat": 31.325984,
    "lng": 121.407624,
    "phone": "13012869257",
    "priceText": "¥46/人",
    "address": "沪太路3633号海友酒店3楼",
    "regionName": "上海大学",
    "city": "上海",
    "urlKey": "2025-04-30/dianping/data-k6EI0DisuhZtT7EX"
  },
  {
    "name": "魔兔电竞·台球",
    "lat": 31.171481,
    "lng": 121.548728,
    "phone": "17316334149",
    "priceText": "¥35/人",
    "address": "绿林路211号二楼",
    "regionName": "北蔡",
    "city": "上海",
    "urlKey": "2025-04-30/dianping/data-k6DR5FX5ofwDTXir"
  },
  {
    "name": "捷闽网咖·电竞·台球",
    "lat": 31.376529,
    "lng": 121.296233,
    "phone": "19370752589",
    "priceText": "¥61/人",
    "address": "嘉戬支路148号2 3楼",
    "regionName": "戬浜镇",
    "city": "上海",
    "urlKey": "2025-04-30/dianping/data-k6643OdHFVqKCrnx"
  },
  {
    "name": "网鱼电竞",
    "lat": 31.290631,
    "lng": 121.323351,
    "phone": "18916480404",
    "priceText": "¥33/人",
    "address": "银翔路609号B1层B103室-B108室",
    "regionName": "南翔",
    "city": "上海",
    "urlKey": "2025-04-30/dianping/data-k5mzQxVbbeGKCm21"
  },
  {
    "name": "东方网点",
    "lat": 31.245016,
    "lng": 121.451466,
    "phone": "62455526",
    "priceText": "¥25/人",
    "address": "天目西路500号3楼（近联通国际大厦）",
    "regionName": "上海火车站/客运汽车总站",
    "city": "上海",
    "urlKey": "2025-04-30/dianping/data-k5k33S7kb3EoheZG"
  },
  {
    "name": "青枫网咖",
    "lat": 31.141076,
    "lng": 121.624319,
    "phone": "15000571659",
    "priceText": "¥28/人",
    "address": "苗桥路康桥仁怡苑",
    "regionName": "迪士尼",
    "city": "上海",
    "urlKey": "2025-04-30/dianping/data-k5jKFEgVitHu6iQ4"
  },
  {
    "name": "蜂鸟电竞",
    "lat": 31.402997,
    "lng": 121.427671,
    "phone": "18117160004",
    "priceText": "¥19/人",
    "address": "德都路金悦生活广场三楼3301号",
    "regionName": "月浦镇",
    "city": "上海",
    "urlKey": "2025-04-30/dianping/data-k5f8QvJgTkawPULl"
  },
  {
    "name": "夕阳电竞",
    "lat": 31.171728,
    "lng": 121.423056,
    "phone": "19921135255",
    "priceText": "¥39/人",
    "address": "田林路12号2层东半部、3层东半部",
    "regionName": "漕河泾/田林",
    "city": "上海",
    "urlKey": "2025-04-30/dianping/data-k5dC9abHDhaV1CuZ"
  },
  {
    "name": "极狐电竞",
    "lat": 31.309267,
    "lng": 121.319137,
    "phone": "19916719420",
    "priceText": "¥9/人",
    "address": "宝翔路671号2楼",
    "regionName": "南翔",
    "city": "上海",
    "urlKey": "2025-04-30/dianping/data-k5bjYQTNNer9X7RZ"
  },
  {
    "name": "Bee电竞网咖",
    "lat": 30.97333,
    "lng": 121.510083,
    "phone": "19921336022",
    "priceText": "",
    "address": "金碧路1998弄1号3楼304室",
    "regionName": "金汇镇",
    "city": "上海",
    "urlKey": "2025-04-30/dianping/data-k5aFwcEyrM2VUyRz"
  },
  {
    "name": "网鱼电竞",
    "lat": 30.894176,
    "lng": 121.737805,
    "phone": "15800705129",
    "priceText": "¥39/人",
    "address": "海旗路1471、1473号",
    "regionName": "奉贤区",
    "city": "上海",
    "urlKey": "2025-04-30/dianping/data-k58R5PCXRtdRqCYV"
  },
  {
    "name": "网鱼网咖·棋牌",
    "lat": 31.283539,
    "lng": 121.406144,
    "phone": "13512171048",
    "priceText": "¥27/人",
    "address": "真金路1041号3楼",
    "regionName": "大华地区",
    "city": "上海",
    "urlKey": "2025-04-30/dianping/data-k4znd1xy62Z574jo"
  },
  {
    "name": "夕阳电竞",
    "lat": 31.293216,
    "lng": 121.308676,
    "phone": "18019225527",
    "priceText": "¥35/人",
    "address": "德华路南翔558商业生活广场2楼208",
    "regionName": "南翔",
    "city": "上海",
    "urlKey": "2025-04-30/dianping/data-k4t5By9Q3BRMA57d"
  },
  {
    "name": "网鱼网咖",
    "lat": 31.126589,
    "lng": 121.446499,
    "phone": "15618421963",
    "priceText": "¥39/人",
    "address": "华发路399号2楼",
    "regionName": "华泾镇",
    "city": "上海",
    "urlKey": "2025-04-30/dianping/data-k4q5TN8Qwr4RNXyZ"
  },
  {
    "name": "聚龙电竞·MAX",
    "lat": 31.239342,
    "lng": 121.439284,
    "phone": "13262969192",
    "priceText": "¥45/人",
    "address": "常德路1168号",
    "regionName": "长寿路",
    "city": "上海",
    "urlKey": "2025-04-30/dianping/data-k4o98rPIauObaPdy"
  },
  {
    "name": "腾讯电竞·棋牌",
    "lat": 31.285072,
    "lng": 121.353891,
    "phone": "36036001",
    "priceText": "¥30/人",
    "address": "雪松路368号（电梯上4楼）",
    "regionName": "桃浦",
    "city": "上海",
    "urlKey": "2025-04-30/dianping/data-k4hgedpGLH3wH053"
  },
  {
    "name": "乐乐网咖·棋牌",
    "lat": 31.217377,
    "lng": 121.516264,
    "phone": "19514677578",
    "priceText": "¥45/人",
    "address": "浦电路57号4楼",
    "regionName": "世纪大道",
    "city": "上海",
    "urlKey": "2025-04-30/dianping/data-k4fwsihw744HJJ0d"
  },
  {
    "name": "蓝山网咖",
    "lat": 31.175544,
    "lng": 121.259234,
    "phone": "13818227282",
    "priceText": "¥39/人",
    "address": "诸陆西路852号三楼",
    "regionName": "国家会展中心",
    "city": "上海",
    "urlKey": "2025-04-30/dianping/data-k4em8eyVhqLYtzYQ"
  },
  {
    "name": "红猫电竞馆",
    "lat": 31.369128,
    "lng": 121.449141,
    "phone": "15821169273",
    "priceText": "¥24/人",
    "address": "水产路2199弄107号招商花园城2楼",
    "regionName": "杨行镇",
    "city": "上海",
    "urlKey": "2025-04-30/dianping/data-k4Yr8LzClBQ52SGn"
  },
  {
    "name": "T电竞",
    "lat": 30.904758,
    "lng": 121.451098,
    "phone": "18117576817",
    "priceText": "¥19/人",
    "address": "育秀路1279号3楼",
    "regionName": "南桥",
    "city": "上海",
    "urlKey": "2025-04-30/dianping/data-k4UAbwoHw9nLhvjc"
  },
  {
    "name": "蜂鸟电竞",
    "lat": 31.330078,
    "lng": 121.440328,
    "phone": "13311839002",
    "priceText": "¥28/人",
    "address": "长江西路2230弄凯旋丽都生活广场2楼",
    "regionName": "庙行/共康",
    "city": "上海",
    "urlKey": "2025-04-30/dianping/data-k4OrZEZFlXOz38m0"
  },
  {
    "name": "木庆源网咖",
    "lat": 31.202996,
    "lng": 121.616406,
    "phone": "17621312369",
    "priceText": "",
    "address": "紫薇路201号3楼动漫网咖",
    "regionName": "张江",
    "city": "上海",
    "urlKey": "2025-04-30/dianping/data-k4Jec7l36yUOY3zd"
  },
  {
    "name": "夕阳电竞",
    "lat": 31.328349,
    "lng": 121.256219,
    "phone": "18964694772",
    "priceText": "¥34/人",
    "address": "云谷路279弄4号地下一层05-106室",
    "regionName": "嘉定新城",
    "city": "上海",
    "urlKey": "2025-04-30/dianping/data-k4AqgmKtb89TfgVj"
  },
  {
    "name": "魔兔网咖",
    "lat": 31.258996,
    "lng": 121.367295,
    "phone": "13482188937",
    "priceText": "¥33/人",
    "address": "金鼎路1802号2楼",
    "regionName": "丰庄",
    "city": "上海",
    "urlKey": "2025-04-30/dianping/data-k3i62KwBY1iseodW"
  },
  {
    "name": "世纪电竞",
    "lat": 31.109525,
    "lng": 121.275016,
    "phone": "",
    "priceText": "¥34/人",
    "address": "江川南路12-20号2楼",
    "regionName": "泗泾镇",
    "city": "上海",
    "urlKey": "2025-04-30/dianping/data-k3ZXe0OxCsNzKBrS"
  },
  {
    "name": "网鱼电竞",
    "lat": 30.986024,
    "lng": 121.245261,
    "phone": "18217105256",
    "priceText": "¥37/人",
    "address": "车墩镇茶坛路591号三层",
    "regionName": "松江区",
    "city": "上海",
    "urlKey": "2025-04-30/dianping/data-k3VT297CRLrBGcLv"
  },
  {
    "name": "部落联盟网咖",
    "lat": 31.394606,
    "lng": 121.431204,
    "phone": "66220203",
    "priceText": "¥36/人",
    "address": "杨泰路2120号1层",
    "regionName": "杨行镇",
    "city": "上海",
    "urlKey": "2025-04-30/dianping/data-k3J9vQhzm533Q2JP"
  },
  {
    "name": "古巴电竞",
    "lat": 31.334984,
    "lng": 121.295461,
    "phone": "15850322318",
    "priceText": "¥30/人",
    "address": "宝安公路2958号二楼",
    "regionName": "马陆镇",
    "city": "上海",
    "urlKey": "2025-04-30/dianping/data-k3DBlDbtAlBUDph0"
  },
  {
    "name": "魔兔网咖",
    "lat": 31.266616,
    "lng": 121.653806,
    "phone": "13120564078",
    "priceText": "¥31/人",
    "address": "曹路镇金海路2505号上海曹路宝龙广场F4层",
    "regionName": "曹路",
    "city": "上海",
    "urlKey": "2025-04-30/dianping/data-k38xvapRfREXH0wZ"
  },
  {
    "name": "网鱼网咖",
    "lat": 31.049496,
    "lng": 121.198136,
    "phone": "17621125299",
    "priceText": "¥34/人",
    "address": "文汇路1046号华信广场2楼（松江大学城）",
    "regionName": "松江大学城",
    "city": "上海",
    "urlKey": "2025-04-30/dianping/data-k33bspchsN47Xi6j"
  },
  {
    "name": "网鱼电竞·棋牌",
    "lat": 31.173899,
    "lng": 121.355767,
    "phone": "18917991552",
    "priceText": "¥42/人",
    "address": "航东路366号2楼",
    "regionName": "七宝",
    "city": "上海",
    "urlKey": "2025-04-30/dianping/data-k31pr2lgmyC2SVs1"
  },
  {
    "name": "古巴电竞",
    "lat": 31.314459,
    "lng": 121.349428,
    "phone": "17316557078",
    "priceText": "¥20/人",
    "address": "城银路555弄12号120室",
    "regionName": "市台路",
    "city": "上海",
    "urlKey": "2025-04-30/dianping/data-k312mzctcynIktiD"
  },
  {
    "name": "蜂鸟电竞",
    "lat": 31.320976,
    "lng": 121.388389,
    "phone": "19921291981",
    "priceText": "¥33/人",
    "address": "锦秋路809弄745号二楼（上海大学地铁站3号口步行50米）",
    "regionName": "上海大学",
    "city": "上海",
    "urlKey": "2025-04-30/dianping/data-k30wBgukbcMS2Jxx"
  },
  {
    "name": "T电竞",
    "lat": 31.058664,
    "lng": 121.240754,
    "phone": "13166467075",
    "priceText": "¥34/人",
    "address": "光星路1599弄马利来广场F2层",
    "regionName": "松江万达广场",
    "city": "上海",
    "urlKey": "2025-04-30/dianping/data-k2xDYBvHfMdbBOQa"
  },
  {
    "name": "网鱼网咖",
    "lat": 31.181511,
    "lng": 121.630997,
    "phone": "19921390038",
    "priceText": "¥32/人",
    "address": "孙桥路271号三楼",
    "regionName": "迪士尼",
    "city": "上海",
    "urlKey": "2025-04-30/dianping/data-k2q62MerSJNEG7zu"
  },
  {
    "name": "网战特区网咖",
    "lat": 31.358253,
    "lng": 121.421488,
    "phone": "56672100",
    "priceText": "¥22/人",
    "address": "水产西路513号",
    "regionName": "宝山区",
    "city": "上海",
    "urlKey": "2025-04-30/dianping/data-k2fl6W0Yb8wFK7e3"
  },
  {
    "name": "Bwin电竞",
    "lat": 31.301277,
    "lng": 121.528723,
    "phone": "",
    "priceText": "¥49/人",
    "address": "安波路533弄2号101-102室",
    "regionName": "五角场/大学路",
    "city": "上海",
    "urlKey": "2025-04-30/dianping/data-k2ceNKutLaH2jQG1"
  },
  {
    "name": "速8电竞",
    "lat": 31.014031,
    "lng": 121.236404,
    "phone": "18807056182",
    "priceText": "¥24/人",
    "address": "谷阳北路126号3楼",
    "regionName": "松江镇",
    "city": "上海",
    "urlKey": "2025-04-30/dianping/data-k2bzXDynE5CjMRtg"
  },
  {
    "name": "金汇网咖",
    "lat": 31.183877,
    "lng": 121.305155,
    "phone": "19921411018",
    "priceText": "¥47/人",
    "address": "徐泾镇诸光路1588弄471号（L3A幢1层）",
    "regionName": "国家会展中心",
    "city": "上海",
    "urlKey": "2025-04-30/dianping/data-k2UT7uQi1YdOV50k"
  },
  {
    "name": "龙猫电竞",
    "lat": 31.361481,
    "lng": 121.360724,
    "phone": "13253653939",
    "priceText": "¥37/人",
    "address": "陆翔路1018弄7号103室二层",
    "regionName": "顾村公园",
    "city": "上海",
    "urlKey": "2025-04-30/dianping/data-k2TIUvlzI4fkYgZM"
  },
  {
    "name": "T电竞",
    "lat": 31.290637,
    "lng": 121.330167,
    "phone": "13641948509",
    "priceText": "¥26/人",
    "address": "南翔镇金润路418号2楼",
    "regionName": "南翔",
    "city": "上海",
    "urlKey": "2025-04-30/dianping/data-k2QkhUkJm03U8O6S"
  },
  {
    "name": "网鱼电竞",
    "lat": 31.200564,
    "lng": 121.309242,
    "phone": "13482628794",
    "priceText": "¥44/人",
    "address": "申滨路479号新华联购物中心B1层27-1、27-2号",
    "regionName": "虹桥火车站/机场",
    "city": "上海",
    "urlKey": "2025-04-30/dianping/data-k2MSX8d2ymSgMqFt"
  },
  {
    "name": "魔兔电竞",
    "lat": 31.251721,
    "lng": 121.600687,
    "phone": "13482466484",
    "priceText": "¥26/人",
    "address": "浙桥路190号2楼（台儿庄路地铁站2号口步行340米）",
    "regionName": "金桥",
    "city": "上海",
    "urlKey": "2025-04-30/dianping/data-k2MEBCqSSdlz8Slv"
  },
  {
    "name": "杰拉电竞",
    "lat": 31.134322,
    "lng": 121.610772,
    "phone": "19370610379",
    "priceText": "¥33/人",
    "address": "箭桥路615弄5号楼15幢301室",
    "regionName": "康桥/周浦",
    "city": "上海",
    "urlKey": "2025-04-30/dianping/data-k2LZfdlD2JlBMrTa"
  },
  {
    "name": "欢鹿土星电竞",
    "lat": 31.243913,
    "lng": 121.424659,
    "phone": "18721827631",
    "priceText": "¥40/人",
    "address": "中山北路2438号101室-2",
    "regionName": "武宁地区",
    "city": "上海",
    "urlKey": "2025-04-30/dianping/data-k2L4Eun1A51HyX9K"
  },
  {
    "name": "魔兔电竞",
    "lat": 31.241269,
    "lng": 121.569029,
    "phone": "13564738759",
    "priceText": "¥28/人",
    "address": "德平路1137号-1141号2楼B区",
    "regionName": "金杨地区",
    "city": "上海",
    "urlKey": "2025-04-30/dianping/data-k2IbHpOf68jgPQQe"
  },
  {
    "name": "鑫豪电竞",
    "lat": 31.115348,
    "lng": 121.577078,
    "phone": "17717380994",
    "priceText": "¥39/人",
    "address": "康沈路1670-1672号2楼",
    "regionName": "康桥/周浦",
    "city": "上海",
    "urlKey": "2025-04-30/dianping/data-k2Cz4dchlFghFfK7"
  },
  {
    "name": "网鱼电竞",
    "lat": 31.135852,
    "lng": 121.604912,
    "phone": "19145611597",
    "priceText": "¥29/人",
    "address": "环桥路1126号2楼",
    "regionName": "康桥/周浦",
    "city": "上海",
    "urlKey": "2025-04-30/dianping/data-k297knlOoIFiqzs0"
  },
  {
    "name": "叁界网咖",
    "lat": 30.915756,
    "lng": 121.460161,
    "phone": "15021104546",
    "priceText": "¥15/人",
    "address": "解放中路328号2楼",
    "regionName": "南桥",
    "city": "上海",
    "urlKey": "2025-04-30/dianping/data-k2541jBEBLXIDqrx"
  },
  {
    "name": "一人一间网咖",
    "lat": 31.310124,
    "lng": 121.515148,
    "phone": "65103875",
    "priceText": "¥32/人",
    "address": "市光路50号2层（距江湾体育场300米）",
    "regionName": "五角场/大学路",
    "city": "上海",
    "urlKey": "2025-04-30/dianping/data-k246GfPvxlZ1GnD0"
  },
  {
    "name": "虎鲨电竞",
    "lat": 31.003695,
    "lng": 121.419851,
    "phone": "13371888385",
    "priceText": "¥41/人",
    "address": "江川路277号3楼（江川路地铁站3号口步行390米）",
    "regionName": "老闵行/交大师大",
    "city": "上海",
    "urlKey": "2025-04-30/dianping/data-k1yOr8gtnEkigXEG"
  },
  {
    "name": "网鱼电竞",
    "lat": 31.257971,
    "lng": 121.481771,
    "phone": "18116155081",
    "priceText": "¥23/人",
    "address": "四川北路1661号艾尚天地B1层（东宝兴路边门进 平安银行西侧）",
    "regionName": "四川北路/海伦路",
    "city": "上海",
    "urlKey": "2025-04-30/dianping/data-k1wpvn373dOs8q94"
  },
  {
    "name": "虎鲨电竞",
    "lat": 31.243128,
    "lng": 121.320708,
    "phone": "13052397787",
    "priceText": "¥43/人",
    "address": "恒久又一城2楼",
    "regionName": "江桥万达广场",
    "city": "上海",
    "urlKey": "2025-04-30/dianping/data-k1wFypJqcCeMsIhs"
  },
  {
    "name": "王牌电竞",
    "lat": 31.180389,
    "lng": 121.565369,
    "phone": "13501894814",
    "priceText": "¥41/人",
    "address": "新陈路349-357号",
    "regionName": "北蔡",
    "city": "上海",
    "urlKey": "2025-04-30/dianping/data-k1t25AoBskR8l5XA"
  },
  {
    "name": "网鱼网咖·棋牌",
    "lat": 31.291231,
    "lng": 121.586701,
    "phone": "",
    "priceText": "¥33/人",
    "address": "东靖路874-1号2楼",
    "regionName": "高行",
    "city": "上海",
    "urlKey": "2025-04-30/dianping/data-k1qY1j4aBY8lhuM1"
  },
  {
    "name": "网鱼网咖",
    "lat": 31.147102,
    "lng": 121.116151,
    "phone": "18017305331",
    "priceText": "¥25/人",
    "address": "盈浦街道青松路62号2-3楼（近城中东路）",
    "regionName": "青浦城区",
    "city": "上海",
    "urlKey": "2025-04-30/dianping/data-k1np3qAbFNkIazzI"
  },
  {
    "name": "虹桥电竞",
    "lat": 31.169675,
    "lng": 121.270645,
    "phone": "15262567298",
    "priceText": "¥27/人",
    "address": "徐泾镇明珠路258号3号楼",
    "regionName": "徐泾",
    "city": "上海",
    "urlKey": "2025-04-30/dianping/data-k1ZTHA813aB9AiAq"
  },
  {
    "name": "网鱼网咖",
    "lat": 31.254364,
    "lng": 121.424024,
    "phone": "62146931",
    "priceText": "¥31/人",
    "address": "管弄路321号（农工商超市正对面）",
    "regionName": "中山北路/甘泉地区",
    "city": "上海",
    "urlKey": "2025-04-30/dianping/data-k1Wx9Jt0HnNlUHs2"
  },
  {
    "name": "网鱼电竞",
    "lat": 30.906134,
    "lng": 121.472292,
    "phone": "13564854282",
    "priceText": "¥17/人",
    "address": "环城东路浦南园59号2楼1室",
    "regionName": "南桥",
    "city": "上海",
    "urlKey": "2025-04-30/dianping/data-k1VP7ANLph660EYl"
  },
  {
    "name": "网鱼电竞",
    "lat": 31.085791,
    "lng": 121.398624,
    "phone": "19308170089",
    "priceText": "¥31/人",
    "address": "颛桥镇都市路3759号龙盛国际商业广场二楼206A",
    "regionName": "春申地区",
    "city": "上海",
    "urlKey": "2025-04-30/dianping/data-k1PKRFiVW3FypHcF"
  },
  {
    "name": "夕阳电竞",
    "lat": 31.148659,
    "lng": 121.566067,
    "phone": "17623804921",
    "priceText": "¥29/人",
    "address": "康桥镇沪南公路2588号201室A区",
    "regionName": "迪士尼",
    "city": "上海",
    "urlKey": "2025-04-30/dianping/data-k1OTAZt8GCx2kzSk"
  },
  {
    "name": "乐空间电竞",
    "lat": 31.025178,
    "lng": 121.393278,
    "phone": "13122098050",
    "priceText": "¥11/人",
    "address": "银春路1955弄71号106室2楼（中国移动旁）",
    "regionName": "老闵行/交大师大",
    "city": "上海",
    "urlKey": "2025-04-30/dianping/data-k1NZrtfuA75E93Ly"
  },
  {
    "name": "T电竞",
    "lat": 31.270581,
    "lng": 121.41947,
    "phone": "15021629776",
    "priceText": "¥23/人",
    "address": "新沪路445号",
    "regionName": "大华地区",
    "city": "上海",
    "urlKey": "2025-04-30/dianping/data-k1Mu56OtAOM4KIYs"
  },
  {
    "name": "网鱼网咖",
    "lat": 31.012154,
    "lng": 121.202811,
    "phone": "13671779149",
    "priceText": "¥30/人",
    "address": "仓汇路523号一楼、519号、521号523号2楼",
    "regionName": "飞航广场",
    "city": "上海",
    "urlKey": "2025-04-30/dianping/data-k1LvsO2CAJFpISHG"
  },
  {
    "name": "虎鲨电竞",
    "lat": 31.301191,
    "lng": 121.298151,
    "phone": "18375562198",
    "priceText": "¥28/人",
    "address": "鹤槎路164号二楼",
    "regionName": "南翔",
    "city": "上海",
    "urlKey": "2025-04-30/dianping/data-k1JpWfSIPomorLw5"
  },
  {
    "name": "柯森网咖棋牌",
    "lat": 31.011174,
    "lng": 121.208667,
    "phone": "17316511914",
    "priceText": "¥31/人",
    "address": "玉树路2659号2楼",
    "regionName": "松江镇",
    "city": "上海",
    "urlKey": "2025-04-30/dianping/data-k1CD8iCnWmZE9JhT"
  },
  {
    "name": "虎鲨电竞",
    "lat": 31.275504,
    "lng": 121.453435,
    "phone": "13761655154",
    "priceText": "¥42/人",
    "address": "共和新路1949号2楼",
    "regionName": "上海大学",
    "city": "上海",
    "urlKey": "2025-04-30/dianping/data-k19DGWbUQ8aU5N2s"
  },
  {
    "name": "网鱼网咖·棋牌",
    "lat": 31.187178,
    "lng": 121.442085,
    "phone": "13402090257",
    "priceText": "¥31/人",
    "address": "徐家汇街道天钥桥路458号申峰大厦B1层",
    "regionName": "徐家汇",
    "city": "上海",
    "urlKey": "2025-04-30/dianping/data-k17luESSN54FZ3GC"
  },
  {
    "name": "e家网咖",
    "lat": 31.282081,
    "lng": 121.422951,
    "phone": "13633962288",
    "priceText": "¥36/人",
    "address": "沪太路1598号2楼202（行知路地铁站1号口步行190米）",
    "regionName": "大华地区",
    "city": "上海",
    "urlKey": "2025-04-30/dianping/data-k16IeMVF9oDUSdSd"
  },
  {
    "name": "网鱼网咖",
    "lat": 31.074736,
    "lng": 121.522899,
    "phone": "18321578518",
    "priceText": "¥40/人",
    "address": "三鲁公路3003弄98-99号202、203、205、208、209、210室",
    "regionName": "浦江镇",
    "city": "上海",
    "urlKey": "2025-04-30/dianping/data-jsRYrMkzAyVvUbYp"
  },
  {
    "name": "666电竞网咖",
    "lat": 31.158925,
    "lng": 121.191934,
    "phone": "13485711899",
    "priceText": "¥35/人",
    "address": "镇泽路560 562,564,566号2楼",
    "regionName": "赵巷镇",
    "city": "上海",
    "urlKey": "2025-04-30/dianping/data-jpEjqExHXSta0QR8"
  },
  {
    "name": "VSPN电竞中心",
    "lat": 31.283654,
    "lng": 121.443814,
    "phone": "",
    "priceText": "¥61/人",
    "address": "电气文通709媒体园区71号",
    "regionName": "大宁地区",
    "city": "上海",
    "urlKey": "2025-04-30/dianping/data-joYBRhMOu58yRk3D"
  },
  {
    "name": "网鱼网咖",
    "lat": 31.230801,
    "lng": 121.227138,
    "phone": "19720211531",
    "priceText": "¥38/人",
    "address": "新凤中路333号E区1幢121、122、212、312室",
    "regionName": "华新镇",
    "city": "上海",
    "urlKey": "2025-04-30/dianping/data-jnsOtFXoTWVHD4U2"
  },
  {
    "name": "网鱼电竞",
    "lat": 31.054639,
    "lng": 121.540039,
    "phone": "15201757618",
    "priceText": "¥32/人",
    "address": "召楼路1982弄1号205、206-1商铺2楼",
    "regionName": "浦江镇",
    "city": "上海",
    "urlKey": "2025-04-30/dianping/data-jf9zuTtODXc62BSY"
  },
  {
    "name": "欢鹿土星电竞",
    "lat": 31.23447,
    "lng": 121.37929,
    "phone": "18721827837",
    "priceText": "¥38/人",
    "address": "金沙江路1628弄五号楼",
    "regionName": "真北中环",
    "city": "上海",
    "urlKey": "2025-04-30/dianping/data-jVFmt8r1lQkhDF6k"
  },
  {
    "name": "网鱼网咖·棋牌",
    "lat": 31.332317,
    "lng": 121.425003,
    "phone": "13310191170",
    "priceText": "¥26/人",
    "address": "场北路633-645号2层",
    "regionName": "庙行/共康",
    "city": "上海",
    "urlKey": "2025-04-30/dianping/data-jSkh2pRsIvyWA4Iw"
  },
  {
    "name": "大威电竞",
    "lat": 31.113384,
    "lng": 121.762174,
    "phone": "19916702535",
    "priceText": "¥14/人",
    "address": "百熙路368弄43号",
    "regionName": "祝桥",
    "city": "上海",
    "urlKey": "2025-04-30/dianping/data-jRAXDYOWw3kf920y"
  },
  {
    "name": "T电竞",
    "lat": 31.197841,
    "lng": 121.703081,
    "phone": "13764003662",
    "priceText": "",
    "address": "川沙新镇北市街242号2楼",
    "regionName": "川沙",
    "city": "上海",
    "urlKey": "2025-04-30/dianping/data-jO7v5TFU9ufjjHsR"
  },
  {
    "name": "涌鑫电竞",
    "lat": 31.260166,
    "lng": 121.431281,
    "phone": "18918037351",
    "priceText": "¥30/人",
    "address": "志丹路130号2樓涌鑫电竞",
    "regionName": "中山北路/甘泉地区",
    "city": "上海",
    "urlKey": "2025-04-30/dianping/data-jKRi9hVoyFce9oz6"
  },
  {
    "name": "心动网络股份有限公司",
    "lat": 31.279963,
    "lng": 121.441893,
    "phone": "60727072",
    "priceText": "¥3267/人",
    "address": "万荣路700号大宁中心广场F1层",
    "regionName": "大宁地区",
    "city": "上海",
    "urlKey": "2025-04-30/dianping/data-jJwEXPvWKv2G1DsJ"
  },
  {
    "name": "网鱼网咖",
    "lat": 31.157081,
    "lng": 121.347821,
    "phone": "13311933082",
    "priceText": "¥45/人",
    "address": "七莘路3088号四楼",
    "regionName": "七宝",
    "city": "上海",
    "urlKey": "2025-04-30/dianping/data-jJvywOugqCuQpbBn"
  },
  {
    "name": "窜天猴电竞",
    "lat": 31.399764,
    "lng": 121.348674,
    "phone": "19121195068",
    "priceText": "¥24/人",
    "address": "美康路美兰湖地铁站2号口",
    "regionName": "美兰湖",
    "city": "上海",
    "urlKey": "2025-04-30/dianping/data-jGVlEHgi79W7pQBa"
  },
  {
    "name": "网鱼网咖·棋牌",
    "lat": 31.282971,
    "lng": 121.385343,
    "phone": "66275961",
    "priceText": "¥36/人",
    "address": "古浪路415弄1号楼3楼",
    "regionName": "桃浦",
    "city": "上海",
    "urlKey": "2025-04-30/dianping/data-jFEZZnb7JmCFyUYQ"
  },
  {
    "name": "Lv MAX蓝胖电竞",
    "lat": 31.24414,
    "lng": 121.380736,
    "phone": "18917502739",
    "priceText": "¥40/人",
    "address": "梅川路1362号3楼",
    "regionName": "梅川路步行街",
    "city": "上海",
    "urlKey": "2025-04-30/dianping/data-j8PfCzMP3k9xFTgr"
  },
  {
    "name": "星海电竞",
    "lat": 30.880991,
    "lng": 121.913941,
    "phone": "19101702777",
    "priceText": "",
    "address": "南汇新城镇古棕路438弄7号",
    "regionName": "滴水湖临港地区",
    "city": "上海",
    "urlKey": "2025-04-30/dianping/data-j4btNSim07C1SheZ"
  },
  {
    "name": "网娥电竞",
    "lat": 31.228519,
    "lng": 121.488938,
    "phone": "18019293161",
    "priceText": "¥35/人",
    "address": "福佑路333号鄂尔多斯广场2楼247室（小商品批发市场斜对面）",
    "regionName": "城隍庙/豫园",
    "city": "上海",
    "urlKey": "2025-04-30/dianping/data-ixk7CYUEXm5rkVj4"
  },
  {
    "name": "盛谊网咖",
    "lat": 31.068329,
    "lng": 121.525279,
    "phone": "16628707999",
    "priceText": "¥130/人",
    "address": "三鲁公路2659号2楼",
    "regionName": "浦江镇",
    "city": "上海",
    "urlKey": "2025-04-30/dianping/data-iejN0SxsFezi3gEp"
  },
  {
    "name": "网鱼电竞",
    "lat": 31.344409,
    "lng": 121.580689,
    "phone": "19821388084",
    "priceText": "¥27/人",
    "address": "石家街92号2楼",
    "regionName": "外高桥",
    "city": "上海",
    "urlKey": "2025-04-30/dianping/data-icwZc8PZBuN7LS5n"
  },
  {
    "name": "网鱼电竞",
    "lat": 31.345091,
    "lng": 121.371477,
    "phone": "18421918161",
    "priceText": "¥26/人",
    "address": "陆翔路111弄正大乐城3楼",
    "regionName": "顾村公园",
    "city": "上海",
    "urlKey": "2025-04-30/dianping/data-iQ0wUCqI1flGAIT5"
  },
  {
    "name": "东方网点",
    "lat": 31.194948,
    "lng": 121.421955,
    "phone": "18930266687",
    "priceText": "¥29/人",
    "address": "凯旋路1669号天星城5层",
    "regionName": "虹桥路",
    "city": "上海",
    "urlKey": "2025-04-30/dianping/data-iKLL0Y0gyi1QPSPj"
  },
  {
    "name": "国音电玩",
    "lat": 31.190977,
    "lng": 121.438477,
    "phone": "15618994357",
    "priceText": "¥1965/人",
    "address": "漕溪北路339号百脑汇4楼4B01（新域智能餐厅旁）",
    "regionName": "徐家汇",
    "city": "上海",
    "urlKey": "2025-04-30/dianping/data-iAWOnkHqKurVE15p"
  },
  {
    "name": "云顶电竞",
    "lat": 31.383148,
    "lng": 121.707438,
    "phone": "15021290309",
    "priceText": "",
    "address": "绿地长兴家园北区",
    "regionName": "长兴岛",
    "city": "上海",
    "urlKey": "2025-04-30/dianping/data-iA1b1lDoQXcc54gf"
  },
  {
    "name": "网鱼网咖·棋牌·台球",
    "lat": 30.941978,
    "lng": 121.318774,
    "phone": "18964664993",
    "priceText": "¥32/人",
    "address": "叶榭镇叶政路451弄143号双高商务广场3楼302、303号",
    "regionName": "叶榭镇",
    "city": "上海",
    "urlKey": "2025-04-30/dianping/data-i8LhC7pZ0aMGYj7u"
  },
  {
    "name": "云咖啡电竞馆",
    "lat": 31.382891,
    "lng": 121.708701,
    "phone": "13918191413",
    "priceText": "",
    "address": "月牙港路",
    "regionName": "长兴岛",
    "city": "上海",
    "urlKey": "2025-04-30/dianping/data-Hadw8j2VAaGfcViv"
  },
  {
    "name": "网鱼网咖",
    "lat": 31.006206,
    "lng": 121.234036,
    "phone": "67898012",
    "priceText": "¥29/人",
    "address": "岳阳街道庙前街152-166号（近松江中山中路庙前街北门）",
    "regionName": "松江镇",
    "city": "上海",
    "urlKey": "2025-04-30/dianping/data-HaduBQiWrFIZpt2C"
  },
  {
    "name": "乐空间网咖",
    "lat": 30.977562,
    "lng": 121.866582,
    "phone": "13341671260",
    "priceText": "¥23/人",
    "address": "老芦公路858弄101号二楼",
    "regionName": "滴水湖临港地区",
    "city": "上海",
    "urlKey": "2025-04-30/dianping/data-HaaV1VV4RIJpPyox"
  },
  {
    "name": "网鱼电竞",
    "lat": 31.041501,
    "lng": 121.769471,
    "phone": "18516551723",
    "priceText": "¥30/人",
    "address": "城南路894号2楼",
    "regionName": "惠南镇",
    "city": "上海",
    "urlKey": "2025-04-30/dianping/data-HaPs0hl3vo89GBQy"
  },
  {
    "name": "东方电竞",
    "lat": 31.268631,
    "lng": 121.391391,
    "phone": "16788865477",
    "priceText": "¥35/人",
    "address": "真如镇街道真南路487号2楼（李子园地铁站2号口步行80米）",
    "regionName": "桃浦",
    "city": "上海",
    "urlKey": "2025-04-30/dianping/data-HaPTMYDV5BMDfmQV"
  },
  {
    "name": "网鱼网咖",
    "lat": 31.016774,
    "lng": 121.431662,
    "phone": "13482533295",
    "priceText": "¥28/人",
    "address": "东川路881号（靠近永平路）",
    "regionName": "交大闵行校区",
    "city": "上海",
    "urlKey": "2025-04-30/dianping/data-HaJNeiPTCx2qM4Is"
  },
  {
    "name": "网鱼电竞",
    "lat": 31.049315,
    "lng": 121.765461,
    "phone": "18918290973",
    "priceText": "¥19/人",
    "address": "人民东路2787-2791号",
    "regionName": "惠南镇",
    "city": "上海",
    "urlKey": "2025-04-30/dianping/data-HaH0HAYzK8nIc9YH"
  },
  {
    "name": "攻略电竞社",
    "lat": 31.222533,
    "lng": 121.532441,
    "phone": "50330069",
    "priceText": "¥45/人",
    "address": "福山路519号三层3F01-3F02室",
    "regionName": "世纪大道",
    "city": "上海",
    "urlKey": "2025-04-30/dianping/data-Ha5NcyOoOt2B0fW2"
  },
  {
    "name": "网鱼电竞",
    "lat": 31.176625,
    "lng": 121.386007,
    "phone": "13482822547",
    "priceText": "¥24/人",
    "address": "虹桥镇吴中路1109号吴中商务大楼三号楼401室",
    "regionName": "虹桥镇",
    "city": "上海",
    "urlKey": "2025-04-30/dianping/data-Ha4gwrk7UrL2SsjS"
  },
  {
    "name": "网鱼电竞·棋牌",
    "lat": 31.388027,
    "lng": 121.349694,
    "phone": "17721068351",
    "priceText": "¥40/人",
    "address": "美安路217号202室",
    "regionName": "美兰湖",
    "city": "上海",
    "urlKey": "2025-04-30/dianping/data-Ha4c09lloMsTyIqK"
  },
  {
    "name": "龙腾电竞",
    "lat": 30.899735,
    "lng": 121.826054,
    "phone": "15102128212",
    "priceText": "¥33/人",
    "address": "泥城路102、104、106号二层B区",
    "regionName": "泥城",
    "city": "上海",
    "urlKey": "2025-04-30/dianping/data-Ha0vAZYHHiUhusSL"
  },
  {
    "name": "魔兔电竞",
    "lat": 31.289105,
    "lng": 121.537395,
    "phone": "13004196142",
    "priceText": "¥30/人",
    "address": "水丰路390号2楼（延吉中路地铁站3号口步行250米）",
    "regionName": "黄兴公园",
    "city": "上海",
    "urlKey": "2025-04-30/dianping/data-H9tiVbXtmzw7j3XI"
  },
  {
    "name": "古巴电竞·网咖台球",
    "lat": 31.360167,
    "lng": 121.237792,
    "phone": "15255099189",
    "priceText": "¥20/人",
    "address": "叶城路与胜辛路交叉口东北角红土天阶负1楼",
    "regionName": "嘉定镇",
    "city": "上海",
    "urlKey": "2025-04-30/dianping/data-H9jCl9j01I0shF4Z"
  },
  {
    "name": "峰鲨电竞",
    "lat": 31.206075,
    "lng": 121.613285,
    "phone": "19521272923",
    "priceText": "¥14/人",
    "address": "川北公路3056号二楼",
    "regionName": "张江",
    "city": "上海",
    "urlKey": "2025-04-30/dianping/data-H9ioHTbvQBb0jjw8"
  },
  {
    "name": "杰拉电竞•网咖",
    "lat": 31.290169,
    "lng": 121.548129,
    "phone": "13601973618",
    "priceText": "¥29/人",
    "address": "图们路23号（距离军工路理工大学校门口280米）",
    "regionName": "黄兴公园",
    "city": "上海",
    "urlKey": "2025-04-30/dianping/data-H9gvWNG5Je4RYwCH"
  },
  {
    "name": "峰鲨电竞",
    "lat": 31.226434,
    "lng": 121.528783,
    "phone": "18019777972",
    "priceText": "¥12/人",
    "address": "潍坊路188号202室",
    "regionName": "世纪大道",
    "city": "上海",
    "urlKey": "2025-04-30/dianping/data-H9asD4Tphf6oP8TQ"
  },
  {
    "name": "网鱼电竞",
    "lat": 31.185629,
    "lng": 121.492419,
    "phone": "18121066973",
    "priceText": "¥34/人",
    "address": "世博大道1368号2区2层203A",
    "regionName": "世博源",
    "city": "上海",
    "urlKey": "2025-04-30/dianping/data-H9R02D4JWZGTzPBj"
  },
  {
    "name": "网鱼网咖",
    "lat": 31.199051,
    "lng": 121.696876,
    "phone": "15221630817",
    "priceText": "¥24/人",
    "address": "川沙路4611号奇天商厦1幢3楼B区",
    "regionName": "川沙",
    "city": "上海",
    "urlKey": "2025-04-30/dianping/data-H9PzdsBE8zk0RgLh"
  },
  {
    "name": "网鱼网咖",
    "lat": 31.121405,
    "lng": 121.503617,
    "phone": "13917347440",
    "priceText": "¥37/人",
    "address": "和炯路191号2楼",
    "regionName": "浦江镇",
    "city": "上海",
    "urlKey": "2025-04-30/dianping/data-H9I4uKPxFHX0zFHv"
  },
  {
    "name": "极狐电竞",
    "lat": 31.315107,
    "lng": 121.384537,
    "phone": "19901616142",
    "priceText": "¥42/人",
    "address": "聚丰园路129号3楼",
    "regionName": "上海大学",
    "city": "上海",
    "urlKey": "2025-04-30/dianping/data-H9EENZaLUAeiGstH"
  },
  {
    "name": "申翔网咖",
    "lat": 31.256811,
    "lng": 121.464774,
    "phone": "66773326",
    "priceText": "¥28/人",
    "address": "南山路107号2楼（共和新路西，西藏北路东）",
    "regionName": "西藏北路/中兴路",
    "city": "上海",
    "urlKey": "2025-04-30/dianping/data-H9DUuMklLjVL74Hm"
  },
  {
    "name": "网鱼网咖",
    "lat": 31.302441,
    "lng": 121.506503,
    "phone": "18321553192",
    "priceText": "¥32/人",
    "address": "政民路215号3楼",
    "regionName": "五角场/大学路",
    "city": "上海",
    "urlKey": "2025-04-30/dianping/data-H90enbvnmj5Cphei"
  },
  {
    "name": "网鱼电竞",
    "lat": 31.104229,
    "lng": 121.232869,
    "phone": "13052531713",
    "priceText": "¥33/人",
    "address": "古楼公路1876弄18号一层",
    "regionName": "佘山",
    "city": "上海",
    "urlKey": "2025-04-30/dianping/data-H8zzgbP72aOaLELO"
  },
  {
    "name": "攻略网咖",
    "lat": 31.254211,
    "lng": 121.475031,
    "phone": "19921498609",
    "priceText": "¥23/人",
    "address": "宝山路街道永兴路96号(农业银行对面)",
    "regionName": "西藏北路/中兴路",
    "city": "上海",
    "urlKey": "2025-04-30/dianping/data-H8uUvn7lhGfqEeto"
  },
  {
    "name": "网鱼电竞",
    "lat": 30.866114,
    "lng": 121.849654,
    "phone": "18939964293",
    "priceText": "¥34/人",
    "address": "渔港路336弄6号一楼",
    "regionName": "滴水湖临港地区",
    "city": "上海",
    "urlKey": "2025-04-30/dianping/data-H8sV0GCbk6i7x3PL"
  },
  {
    "name": "网游电竞馆",
    "lat": 31.243915,
    "lng": 121.424658,
    "phone": "18317163797",
    "priceText": "",
    "address": "中山北路中瑞商务大厦停车场内101室",
    "regionName": "武宁地区",
    "city": "上海",
    "urlKey": "2025-04-30/dianping/data-H8nEmoM5b4xueZjs"
  },
  {
    "name": "润熙电竞",
    "lat": 31.096888,
    "lng": 121.413693,
    "phone": "18361008862",
    "priceText": "¥17/人",
    "address": "莲花南路1500号4号楼302-305室",
    "regionName": "春申地区",
    "city": "上海",
    "urlKey": "2025-04-30/dianping/data-H8ZfxOZIodadvmeZ"
  },
  {
    "name": "乐乐电竞",
    "lat": 31.203725,
    "lng": 121.638534,
    "phone": "15026531745",
    "priceText": "¥38/人",
    "address": "高科中路2860号二层",
    "regionName": "张江",
    "city": "上海",
    "urlKey": "2025-04-30/dianping/data-H8XWFnSqwStV6OsY"
  },
  {
    "name": "网鱼网咖",
    "lat": 31.137249,
    "lng": 121.319655,
    "phone": "18721445076",
    "priceText": "¥22/人",
    "address": "沪松公路1501号轨道交通9号线九亭站二层JT-210221222",
    "regionName": "九亭",
    "city": "上海",
    "urlKey": "2025-04-30/dianping/data-H8OLOicQUnNjbKCt"
  },
  {
    "name": "CG棋牌网咖",
    "lat": 31.02329,
    "lng": 121.22649,
    "phone": "17717327267",
    "priceText": "¥25/人",
    "address": "南期昌路江虹花园60号二楼-1",
    "regionName": "松江镇",
    "city": "上海",
    "urlKey": "2025-04-30/dianping/data-H8KaozMCNQskmoe5"
  },
  {
    "name": "杰拉电竞·网咖·棋牌",
    "lat": 31.064189,
    "lng": 121.393169,
    "phone": "13120518973",
    "priceText": "¥46/人",
    "address": "繁安路229号二楼",
    "regionName": "颛桥/北桥",
    "city": "上海",
    "urlKey": "2025-04-30/dianping/data-H8GCcQZAGSYGJDCp"
  },
  {
    "name": "网鱼电竞",
    "lat": 31.116209,
    "lng": 121.214485,
    "phone": "19261242246",
    "priceText": "¥22/人",
    "address": "陆宝山路155号佘山旭辉里1幢3层305-306室",
    "regionName": "佘山",
    "city": "上海",
    "urlKey": "2025-04-30/dianping/data-H8F393RuWybnSBOW"
  },
  {
    "name": "网鱼电竞",
    "lat": 31.110581,
    "lng": 121.376041,
    "phone": "18121270881",
    "priceText": "¥25/人",
    "address": "莘谭路82号交通银行2楼",
    "regionName": "莘庄",
    "city": "上海",
    "urlKey": "2025-04-30/dianping/data-H8B8VJUGxRb2xPbe"
  },
  {
    "name": "网绅电竞",
    "lat": 31.013767,
    "lng": 121.310534,
    "phone": "19921042333",
    "priceText": "¥24/人",
    "address": "北松公路4915弄13号",
    "regionName": "车墩影视城",
    "city": "上海",
    "urlKey": "2025-04-30/dianping/data-H80qBJZKfVjWxaRg"
  },
  {
    "name": "玩嘿电竞",
    "lat": 31.137047,
    "lng": 121.601297,
    "phone": "17301716058",
    "priceText": "",
    "address": "秀沿路2430-2432号2层",
    "regionName": "康桥/周浦",
    "city": "上海",
    "urlKey": "2025-04-30/dianping/data-H7s8Pv4kPD9dXUaZ"
  },
  {
    "name": "PLAY电竞",
    "lat": 30.916064,
    "lng": 121.4842,
    "phone": "15221360324",
    "priceText": "¥35/人",
    "address": "百齐路588号百联南桥购物中心一期B1层A室",
    "regionName": "南桥",
    "city": "上海",
    "urlKey": "2025-04-30/dianping/data-H7rRsqyFWaUZ6PCX"
  },
  {
    "name": "龙猫电竞",
    "lat": 31.322483,
    "lng": 121.444623,
    "phone": "13761519116",
    "priceText": "¥27/人",
    "address": "共和新路5000弄绿地新都会5号楼222-230室",
    "regionName": "绿地风尚/万达广场",
    "city": "上海",
    "urlKey": "2025-04-30/dianping/data-H7ojhDokQIe4SSXi"
  },
  {
    "name": "宜度电竞台球",
    "lat": 31.350608,
    "lng": 121.364423,
    "phone": "52738166",
    "priceText": "¥35/人",
    "address": "菊太路813-821号",
    "regionName": "顾村公园",
    "city": "上海",
    "urlKey": "2025-04-30/dianping/data-H7WfbBaNk4lcwyj7"
  },
  {
    "name": "网鱼电竞",
    "lat": 31.144117,
    "lng": 121.755543,
    "phone": "18901611658",
    "priceText": "¥29/人",
    "address": "施镇路396弄1号169室（麦当劳后面）",
    "regionName": "浦东机场/机场镇",
    "city": "上海",
    "urlKey": "2025-04-30/dianping/data-H7WDokOmXUl9oEKV"
  },
  {
    "name": "腾讯电竞体验馆",
    "lat": 31.062364,
    "lng": 121.538444,
    "phone": "17316334899",
    "priceText": "¥39/人",
    "address": "召楼路2370弄25号202室",
    "regionName": "闵浦",
    "city": "上海",
    "urlKey": "2025-04-30/dianping/data-H7CSwBM5hbQZIHrt"
  },
  {
    "name": "魔兔电竞·棋牌",
    "lat": 31.281494,
    "lng": 121.599271,
    "phone": "17821077726",
    "priceText": "¥26/人",
    "address": "五莲路1704号二层",
    "regionName": "高行",
    "city": "上海",
    "urlKey": "2025-04-30/dianping/data-H71I3xUFrgoYDs08"
  },
  {
    "name": "网鱼网咖",
    "lat": 31.415629,
    "lng": 121.347519,
    "phone": "",
    "priceText": "¥33/人",
    "address": "罗店镇市一路188号二楼",
    "regionName": "美兰湖",
    "city": "上海",
    "urlKey": "2025-04-30/dianping/data-H6ykbX9om41xWrRK"
  },
  {
    "name": "古巴电竞",
    "lat": 31.349035,
    "lng": 121.151139,
    "phone": "17317136690",
    "priceText": "¥26/人",
    "address": "外钱公路885号",
    "regionName": "外冈镇",
    "city": "上海",
    "urlKey": "2025-04-30/dianping/data-H6ir9trYnHeZ6M6M"
  },
  {
    "name": "乐空间网咖",
    "lat": 30.953501,
    "lng": 121.898323,
    "phone": "15317638937",
    "priceText": "¥19/人",
    "address": "三三公路4900号",
    "regionName": "滴水湖临港地区",
    "city": "上海",
    "urlKey": "2025-04-30/dianping/data-H6cfzBNjbb7DMCkg"
  },
  {
    "name": "乐乐网咖",
    "lat": 31.283619,
    "lng": 121.609894,
    "phone": "15026670510",
    "priceText": "¥24/人",
    "address": "金高路1050-5号2楼",
    "regionName": "高行",
    "city": "上海",
    "urlKey": "2025-04-30/dianping/data-H6bpDzt7nSEkIrf3"
  },
  {
    "name": "网鱼网咖",
    "lat": 31.15158,
    "lng": 121.57914,
    "phone": "15821852771",
    "priceText": "¥43/人",
    "address": "御秀路828弄3号楼2F-06室",
    "regionName": "御桥",
    "city": "上海",
    "urlKey": "2025-04-30/dianping/data-H6VHVqLzltSH1OTA"
  },
  {
    "name": "蜂鸟电竞",
    "lat": 31.115882,
    "lng": 121.459412,
    "phone": "19145716562",
    "priceText": "¥33/人",
    "address": "华济路9-15号二层",
    "regionName": "徐汇区",
    "city": "上海",
    "urlKey": "2025-04-30/dianping/data-H6Qg5dLfxUy7ZNjH"
  },
  {
    "name": "一人一间网咖",
    "lat": 31.308197,
    "lng": 121.514566,
    "phone": "65103875",
    "priceText": "¥48/人",
    "address": "政立路227号1层",
    "regionName": "五角场/大学路",
    "city": "上海",
    "urlKey": "2025-04-30/dianping/data-H6OZBt8OZNtwe4ak"
  },
  {
    "name": "万鱼精品电竞网咖",
    "lat": 31.268683,
    "lng": 121.336701,
    "phone": "69990338",
    "priceText": "",
    "address": "嘉涌路26号",
    "regionName": "江桥",
    "city": "上海",
    "urlKey": "2025-04-30/dianping/data-H6Hajdrss85a67Fx"
  },
  {
    "name": "连盈电竞潮玩",
    "lat": 31.323964,
    "lng": 121.270315,
    "phone": "18201882581",
    "priceText": "",
    "address": "宝安公路3705弄130号102-104",
    "regionName": "马陆镇",
    "city": "上海",
    "urlKey": "2025-04-30/dianping/data-H6HQYu6kDR0egAio"
  },
  {
    "name": "网鱼电竞棋牌",
    "lat": 31.146513,
    "lng": 121.315203,
    "phone": "18721295001",
    "priceText": "¥29/人",
    "address": "九里亭街道沪亭北路607弄25号3层",
    "regionName": "九亭",
    "city": "上海",
    "urlKey": "2025-04-30/dianping/data-H6CvirOCleJmHGHM"
  },
  {
    "name": "乐联电竞·网咖·网吧",
    "lat": 31.294318,
    "lng": 121.163142,
    "phone": "13120560488",
    "priceText": "¥33/人",
    "address": "墨玉路86号",
    "regionName": "安亭镇",
    "city": "上海",
    "urlKey": "2025-04-30/dianping/data-H61B19KV28OJAEN4"
  },
  {
    "name": "欣宇网咖",
    "lat": 31.042342,
    "lng": 121.407489,
    "phone": "15901883077",
    "priceText": "¥27/人",
    "address": "北松公路121号2楼",
    "regionName": "颛桥/北桥",
    "city": "上海",
    "urlKey": "2025-04-30/dianping/data-H5tGbmDocLXvzZeQ"
  },
  {
    "name": "欢鹿土星电竞",
    "lat": 31.293236,
    "lng": 121.664266,
    "phone": "13701658332",
    "priceText": "¥33/人",
    "address": "顾曹公路589号",
    "regionName": "曹路",
    "city": "上海",
    "urlKey": "2025-04-30/dianping/data-H5sQD9hJhW02zNWJ"
  },
  {
    "name": "CK电竞",
    "lat": 31.189016,
    "lng": 121.429606,
    "phone": "64692678",
    "priceText": "¥67/人",
    "address": "宜山路250弄12-1临",
    "regionName": "光启城",
    "city": "上海",
    "urlKey": "2025-04-30/dianping/data-H5eDWOQ5KXD3OaoX"
  },
  {
    "name": "臻火电竞",
    "lat": 31.038262,
    "lng": 121.218456,
    "phone": "18916774971",
    "priceText": "¥16/人",
    "address": "新松江路927弄4层4044A室（红星电影院旁边）",
    "regionName": "开元地中海",
    "city": "上海",
    "urlKey": "2025-04-30/dianping/data-H5QYrGcvVnHX2JIq"
  },
  {
    "name": "网鱼电竞",
    "lat": 31.106898,
    "lng": 121.391165,
    "phone": "13166207890",
    "priceText": "¥28/人",
    "address": "名都路36弄14号2楼A区",
    "regionName": "莘庄",
    "city": "上海",
    "urlKey": "2025-04-30/dianping/data-H5OYU6qfAmbAjQp1"
  },
  {
    "name": "杰拉电竞·网咖",
    "lat": 31.238357,
    "lng": 121.228827,
    "phone": "15021289130",
    "priceText": "¥26/人",
    "address": "华腾路518弄6号303",
    "regionName": "华新镇",
    "city": "上海",
    "urlKey": "2025-04-30/dianping/data-H5K42ZzyDcjVspQQ"
  },
  {
    "name": "蜂鸟电竞卓威体验馆",
    "lat": 31.318934,
    "lng": 121.484439,
    "phone": "19302165631",
    "priceText": "¥36/人",
    "address": "逸仙路1328号临港新业坊源创8栋3层308-1、308-2室",
    "regionName": "高境",
    "city": "上海",
    "urlKey": "2025-04-30/dianping/data-H5IvDdzYVx8qgMAQ"
  },
  {
    "name": "虎鲨电竞",
    "lat": 31.082185,
    "lng": 121.401363,
    "phone": "15300805396",
    "priceText": "¥34/人",
    "address": "都市路3613、3617号2楼",
    "regionName": "莘庄",
    "city": "上海",
    "urlKey": "2025-04-30/dianping/data-H5GupurN4PVYwzxa"
  },
  {
    "name": "峰鲨电竞·棋牌",
    "lat": 31.172891,
    "lng": 121.739587,
    "phone": "15921412874",
    "priceText": "¥70/人",
    "address": "江晖路409弄84号3楼",
    "regionName": "江镇",
    "city": "上海",
    "urlKey": "2025-04-30/dianping/data-H5BZUpnAo8m29sEA"
  },
  {
    "name": "网鱼电竞",
    "lat": 31.280306,
    "lng": 121.210858,
    "phone": "13564671941",
    "priceText": "¥42/人",
    "address": "黄渡绿苑路587号2楼",
    "regionName": "安亭黄渡镇",
    "city": "上海",
    "urlKey": "2025-04-30/dianping/data-H5970gt3twm5WcuH"
  },
  {
    "name": "魔兔电竞",
    "lat": 31.173091,
    "lng": 121.382439,
    "phone": "13072165587",
    "priceText": "¥29/人",
    "address": "合川路2908号新乐坊C座301-B室魔兔电竞",
    "regionName": "虹桥镇",
    "city": "上海",
    "urlKey": "2025-04-30/dianping/data-H4yUqBpRFEmj0txn"
  },
  {
    "name": "杰拉电竞·网咖",
    "lat": 31.143603,
    "lng": 121.309806,
    "phone": "13564919167",
    "priceText": "¥33/人",
    "address": "九杜公路477号1幢3楼",
    "regionName": "九亭",
    "city": "上海",
    "urlKey": "2025-04-30/dianping/data-H4lTAlJmKjKtpT2b"
  },
  {
    "name": "网鱼电竞",
    "lat": 31.197091,
    "lng": 121.437281,
    "phone": "54070502",
    "priceText": "¥35/人",
    "address": "华山路2038号百联徐汇商业广场南楼4楼",
    "regionName": "徐家汇",
    "city": "上海",
    "urlKey": "2025-04-30/dianping/data-H4kygikvjeJeX4CU"
  },
  {
    "name": "网鱼电竞",
    "lat": 31.256981,
    "lng": 121.579021,
    "phone": "19901788357",
    "priceText": "¥27/人",
    "address": "张扬路3611号金桥国际商业广场2座4楼405室406室（米村拌饭对面）",
    "regionName": "金桥",
    "city": "上海",
    "urlKey": "2025-04-30/dianping/data-H4jaE8AuVwDu7ezs"
  },
  {
    "name": "星海岸网咖",
    "lat": 31.147221,
    "lng": 121.756241,
    "phone": "19352151947",
    "priceText": "¥25/人",
    "address": "施新路802弄绿地东海岸时代广场D区3层",
    "regionName": "浦东机场/机场镇",
    "city": "上海",
    "urlKey": "2025-04-30/dianping/data-H4jCifQB2ANQG0N0"
  },
  {
    "name": "峰鲨电竞",
    "lat": 31.151761,
    "lng": 121.758961,
    "phone": "13472418917",
    "priceText": "",
    "address": "施宏路396号2楼",
    "regionName": "浦东机场/机场镇",
    "city": "上海",
    "urlKey": "2025-04-30/dianping/data-H4h9kEhghkd2060e"
  },
  {
    "name": "杰拉电竞•网咖",
    "lat": 31.330417,
    "lng": 121.255147,
    "phone": "15921250611",
    "priceText": "¥20/人",
    "address": "胜辛路426号2层2061",
    "regionName": "嘉定新城",
    "city": "上海",
    "urlKey": "2025-04-30/dianping/data-H4g9aYc2VcU94YFy"
  },
  {
    "name": "古巴电竞",
    "lat": 31.344108,
    "lng": 121.497991,
    "phone": "19101600324",
    "priceText": "¥26/人",
    "address": "淞发路25弄13号2层",
    "regionName": "淞南",
    "city": "上海",
    "urlKey": "2025-04-30/dianping/data-H4JlFHnxaKVAc8av"
  },
  {
    "name": "欢鹿土星电竞",
    "lat": 31.281903,
    "lng": 121.487304,
    "phone": "18721827902",
    "priceText": "¥32/人",
    "address": "东体育会路661号",
    "regionName": "曲阳地区",
    "city": "上海",
    "urlKey": "2025-04-30/dianping/data-H4FtOVI4llNSHNw4"
  },
  {
    "name": "网鱼网咖·棋牌",
    "lat": 31.35089,
    "lng": 121.43297,
    "phone": "17698982831",
    "priceText": "¥34/人",
    "address": "共富路101号-103号（1号线共富新村站3号口旁）",
    "regionName": "宝山区",
    "city": "上海",
    "urlKey": "2025-04-30/dianping/data-H42fKk9u9zM0zMcr"
  },
  {
    "name": "网鱼电竞",
    "lat": 31.228979,
    "lng": 121.518587,
    "phone": "18201707754",
    "priceText": "¥34/人",
    "address": "南泉北路588号新大陆广场南楼第三层房间是S3-03a",
    "regionName": "八佰伴",
    "city": "上海",
    "urlKey": "2025-04-30/dianping/data-H3mzo0bkTmaDPB1q"
  },
  {
    "name": "魔兔电竞",
    "lat": 31.237853,
    "lng": 121.544033,
    "phone": "15221421017",
    "priceText": "¥28/人",
    "address": "沈家弄路808号",
    "regionName": "洋泾",
    "city": "上海",
    "urlKey": "2025-04-30/dianping/data-H3kzQH1aZwAjqh8W"
  },
  {
    "name": "同承网咖·茶艺棋牌",
    "lat": 31.025413,
    "lng": 121.296076,
    "phone": "13061717951",
    "priceText": "",
    "address": "南乐路456号乐尚天地生活广场F4层",
    "regionName": "车墩影视城",
    "city": "上海",
    "urlKey": "2025-04-30/dianping/data-H3iOPJwDE5QQTwvU"
  },
  {
    "name": "网鱼网咖",
    "lat": 31.046182,
    "lng": 121.758782,
    "phone": "15121179223",
    "priceText": "¥43/人",
    "address": "东门大街193弄10-18号1-2楼",
    "regionName": "惠南镇",
    "city": "上海",
    "urlKey": "2025-04-30/dianping/data-H3avJMweRW9i4gUD"
  },
  {
    "name": "乐空间网咖",
    "lat": 31.283347,
    "lng": 121.177707,
    "phone": "13062881756",
    "priceText": "¥22/人",
    "address": "进明渡路306号2楼",
    "regionName": "安亭镇",
    "city": "上海",
    "urlKey": "2025-04-30/dianping/data-H3a6IcfFGAPdpVVY"
  },
  {
    "name": "网鱼网咖",
    "lat": 31.183587,
    "lng": 121.448965,
    "phone": "17717427603",
    "priceText": "¥40/人",
    "address": "枫林路街道中山南二路933号(近双峰路)",
    "regionName": "龙华/西岸",
    "city": "上海",
    "urlKey": "2025-04-30/dianping/data-H3UIYXzxtj0EPn8S"
  },
  {
    "name": "网鱼网咖",
    "lat": 31.175741,
    "lng": 121.523116,
    "phone": "19117271859",
    "priceText": "¥34/人",
    "address": "成山路1257号2楼",
    "regionName": "世博园",
    "city": "上海",
    "urlKey": "2025-04-30/dianping/data-H3SheobfTi5e2r9P"
  },
  {
    "name": "网鱼电竞",
    "lat": 31.264937,
    "lng": 121.537573,
    "phone": "13166369015",
    "priceText": "¥37/人",
    "address": "滨江百联购物中心",
    "regionName": "平凉路/东外滩",
    "city": "上海",
    "urlKey": "2025-04-30/dianping/data-H3HWUSaBNUEancy4"
  },
  {
    "name": "欢鹿土星电竞",
    "lat": 31.302822,
    "lng": 121.481037,
    "phone": "18721827967",
    "priceText": "¥46/人",
    "address": "新市北路1386-1号2层",
    "regionName": "凉城/江湾镇",
    "city": "上海",
    "urlKey": "2025-04-30/dianping/data-H3H5DUcAE9ekaJ5d"
  },
  {
    "name": "网鱼电竞",
    "lat": 31.353777,
    "lng": 121.761455,
    "phone": "15800790839",
    "priceText": "¥28/人",
    "address": "兴坤路18号长兴阳光天地商场4楼",
    "regionName": "长兴岛",
    "city": "上海",
    "urlKey": "2025-04-30/dianping/data-H2tq2hy1YsGuOeSG"
  },
  {
    "name": "Lv MAX蓝胖电竞",
    "lat": 31.188262,
    "lng": 121.402926,
    "phone": "19101746651",
    "priceText": "¥47/人",
    "address": "古北1699商业广场b1层b111-2 b149",
    "regionName": "虹桥镇",
    "city": "上海",
    "urlKey": "2025-04-30/dianping/data-H2sWzcMunD4IcFrY"
  },
  {
    "name": "网鱼电竞",
    "lat": 31.235871,
    "lng": 121.479159,
    "phone": "15001899127",
    "priceText": "¥34/人",
    "address": "南京东路588号5楼丝绸商厦商务时装门口上楼（世纪广场正对面）",
    "regionName": "南京东路",
    "city": "上海",
    "urlKey": "2025-04-30/dianping/data-H2q8Gr4fEuj1GE2X"
  },
  {
    "name": "网鱼电竞",
    "lat": 31.29061,
    "lng": 121.52203,
    "phone": "18221501563",
    "priceText": "¥42/人",
    "address": "关山路48号一层（近国权路）",
    "regionName": "五角场/大学路",
    "city": "上海",
    "urlKey": "2025-04-30/dianping/data-H2mvcYNqkY8c1ahO"
  },
  {
    "name": "嘉草网咖",
    "lat": 31.207768,
    "lng": 121.487119,
    "phone": "33766089",
    "priceText": "¥35/人",
    "address": "斜土东路255号三层",
    "regionName": "西藏南路/世博会馆",
    "city": "上海",
    "urlKey": "2025-04-30/dianping/data-H2flJhNEQeMQ9xDB"
  },
  {
    "name": "宝菊网吧",
    "lat": 31.074961,
    "lng": 121.056091,
    "phone": "59831657",
    "priceText": "¥6/人",
    "address": "万步路10号",
    "regionName": "青浦区",
    "city": "上海",
    "urlKey": "2025-04-30/dianping/data-H2f6B7gmMZdZEjru"
  },
  {
    "name": "网鱼网咖",
    "lat": 31.261394,
    "lng": 121.593534,
    "phone": "58955823",
    "priceText": "¥31/人",
    "address": "长岛路1228号3楼",
    "regionName": "金桥",
    "city": "上海",
    "urlKey": "2025-04-30/dianping/data-H2ZaCjq9yWIR7y8d"
  },
  {
    "name": "臻火电竞",
    "lat": 31.279259,
    "lng": 121.422803,
    "phone": "18930350585",
    "priceText": "¥34/人",
    "address": "华灵路841号2楼208室",
    "regionName": "大华地区",
    "city": "上海",
    "urlKey": "2025-04-30/dianping/data-H2XpdrgSovGqb0co"
  },
  {
    "name": "New happy电竞综合馆",
    "lat": 31.357418,
    "lng": 121.262279,
    "phone": "19372841037",
    "priceText": "¥72/人",
    "address": "洪德路201弄35号",
    "regionName": "嘉定新城",
    "city": "上海",
    "urlKey": "2025-04-30/dianping/data-H2WTzFUYXZY18Jgq"
  },
  {
    "name": "轩浩网咖",
    "lat": 31.275052,
    "lng": 121.663372,
    "phone": "18117016190",
    "priceText": "¥16/人",
    "address": "民雨路335号（大风车广场必胜客楼上）",
    "regionName": "曹路",
    "city": "上海",
    "urlKey": "2025-04-30/dianping/data-H2W0IRp03JSTPAwH"
  },
  {
    "name": "魔兔网咖",
    "lat": 31.207872,
    "lng": 121.662838,
    "phone": "17612132719",
    "priceText": "¥29/人",
    "address": "齐爱路477-485号2层",
    "regionName": "唐镇",
    "city": "上海",
    "urlKey": "2025-04-30/dianping/data-H2R5hNkQICoMfZJp"
  },
  {
    "name": "玩嘿电竞",
    "lat": 31.172028,
    "lng": 121.507415,
    "phone": "18121499232",
    "priceText": "¥24/人",
    "address": "成山路500号浦乐汇3楼",
    "regionName": "上南地区",
    "city": "上海",
    "urlKey": "2025-04-30/dianping/data-H2PYVAJYlUnmLvZY"
  },
  {
    "name": "红猫电竞馆",
    "lat": 31.387343,
    "lng": 121.338218,
    "phone": "17279346341",
    "priceText": "¥40/人",
    "address": "美平路793号二楼",
    "regionName": "美兰湖",
    "city": "上海",
    "urlKey": "2025-04-30/dianping/data-H2MOL8X5eVDME7NW"
  },
  {
    "name": "乐空间电竞棋牌",
    "lat": 31.13498,
    "lng": 121.084115,
    "phone": "13311605163",
    "priceText": "¥20/人",
    "address": "淀山湖大道万达茂金街B区二楼202室",
    "regionName": "青浦城区",
    "city": "上海",
    "urlKey": "2025-04-30/dianping/data-H2F24bXJ12SLfKac"
  },
  {
    "name": "蓝胖电竞",
    "lat": 31.385182,
    "lng": 121.279132,
    "phone": "13391106272",
    "priceText": "¥57/人",
    "address": "百联嘉定购物中心4楼407-413室（近南门、来伊份楼上、近露天停车场）",
    "regionName": "嘉定镇",
    "city": "上海",
    "urlKey": "2025-04-30/dianping/data-H2CGdIQ8qqnpRAVI"
  },
  {
    "name": "欢鹿土星电竞",
    "lat": 31.239958,
    "lng": 121.404858,
    "phone": "18721827651",
    "priceText": "¥34/人",
    "address": "兰溪路148号曹杨数码广场五楼",
    "regionName": "曹杨地区",
    "city": "上海",
    "urlKey": "2025-04-30/dianping/data-H29UWDxuRIYmBLzM"
  },
  {
    "name": "玩嘿电竞·星宫店",
    "lat": 31.244044,
    "lng": 121.468324,
    "phone": "17192186161",
    "priceText": "¥31/人",
    "address": "海宁路1399号金城大厦3-11",
    "regionName": "苏河湾",
    "city": "上海",
    "urlKey": "2025-04-30/dianping/data-H25JEPaHfvmByHwd"
  },
  {
    "name": "极狐电竞 棋牌",
    "lat": 31.242831,
    "lng": 121.328503,
    "phone": "15221157127",
    "priceText": "¥32/人",
    "address": "华江路786号",
    "regionName": "江桥万达广场",
    "city": "上海",
    "urlKey": "2025-04-30/dianping/data-H1wkMbTLCBej7eKI"
  },
  {
    "name": "网鱼网咖",
    "lat": 30.905775,
    "lng": 121.815895,
    "phone": "15221168066",
    "priceText": "¥40/人",
    "address": "泥城镇鸿音路3155弄128号3楼网鱼电竞(海上歌友隔壁)",
    "regionName": "泥城",
    "city": "上海",
    "urlKey": "2025-04-30/dianping/data-H1gyWyRZGLoNgDbp"
  },
  {
    "name": "战云电竞",
    "lat": 31.270689,
    "lng": 121.316428,
    "phone": "17521215253",
    "priceText": "",
    "address": "嘉峪关路397号",
    "regionName": "江桥",
    "city": "上海",
    "urlKey": "2025-04-30/dianping/data-H1gRQzfDYNwaULqy"
  },
  {
    "name": "杰拉电竞·网咖",
    "lat": 31.151798,
    "lng": 121.350238,
    "phone": "13818180484",
    "priceText": "¥18/人",
    "address": "七莘路2907号(9号线七宝站万科广场)",
    "regionName": "七宝",
    "city": "上海",
    "urlKey": "2025-04-30/dianping/data-H1e61XRjfIzFP3gQ"
  },
  {
    "name": "网鱼电竞",
    "lat": 31.217741,
    "lng": 121.421878,
    "phone": "18918052961",
    "priceText": "¥34/人",
    "address": "定西路1550号三樓（大娘水饺三楼）",
    "regionName": "中山公园/江苏路",
    "city": "上海",
    "urlKey": "2025-04-30/dianping/data-H1dDJxIwHCiGXXhX"
  },
  {
    "name": "网鱼网咖",
    "lat": 31.066992,
    "lng": 121.398989,
    "phone": "18917892440",
    "priceText": "¥36/人",
    "address": "颛兴路117号2楼",
    "regionName": "颛桥/北桥",
    "city": "上海",
    "urlKey": "2025-04-30/dianping/data-H1c7KsGplUacnRvu"
  },
  {
    "name": "网鱼电竞",
    "lat": 31.269797,
    "lng": 121.461844,
    "phone": "36527181",
    "priceText": "¥30/人",
    "address": "共和新路街道洛川东路360号裙楼201室360-1室(近农行共和支行)",
    "regionName": "闸北公园",
    "city": "上海",
    "urlKey": "2025-04-30/dianping/data-H1PvpjbMiTF9ZHhr"
  },
  {
    "name": "乐乐电竞",
    "lat": 31.041006,
    "lng": 121.456548,
    "phone": "15028195661",
    "priceText": "¥33/人",
    "address": "永德路419号101室208-2",
    "regionName": "吴泾镇",
    "city": "上海",
    "urlKey": "2025-04-30/dianping/data-H1K5XDjyzTpmDKZG"
  },
  {
    "name": "网鱼网咖",
    "lat": 31.210154,
    "lng": 121.393155,
    "phone": "62597187",
    "priceText": "¥35/人",
    "address": "仙霞新村街道茅台路480号B1层",
    "regionName": "天山",
    "city": "上海",
    "urlKey": "2025-04-30/dianping/data-H1F5lgNgDiKO9OUu"
  },
  {
    "name": "子奇电竞",
    "lat": 31.123423,
    "lng": 121.423553,
    "phone": "19821276066",
    "priceText": "¥34/人",
    "address": "虹梅南路1005号59幢3034-3037室（华光生活广场）",
    "regionName": "莲花路/南方商城",
    "city": "上海",
    "urlKey": "2025-04-30/dianping/data-H18J3QHz746rMXZV"
  },
  {
    "name": "部落联盟网咖",
    "lat": 31.363456,
    "lng": 121.367794,
    "phone": "13020151292",
    "priceText": "¥37/人",
    "address": "菊盛路945号2层",
    "regionName": "宝山区",
    "city": "上海",
    "urlKey": "2025-04-30/dianping/data-H15bH8tCpFN0UG6V"
  },
  {
    "name": "零点电竞·台球·棋牌",
    "lat": 31.412738,
    "lng": 121.343479,
    "phone": "19121560693",
    "priceText": "¥31/人",
    "address": "塘西街39号罗店购物中心2层01室",
    "regionName": "美兰湖",
    "city": "上海",
    "urlKey": "2025-04-30/dianping/data-GatszpCdQRJYZOA1"
  },
  {
    "name": "网鱼网咖·棋牌",
    "lat": 30.84916,
    "lng": 121.51305,
    "phone": "18721671181",
    "priceText": "¥28/人",
    "address": "金海公路99弄60号304.305室（佳源梦想广场三楼）",
    "regionName": "奉贤区",
    "city": "上海",
    "urlKey": "2025-04-30/dianping/data-Gafa8rJsiv79CSAd"
  },
  {
    "name": "天际电竞",
    "lat": 31.260073,
    "lng": 121.341381,
    "phone": "17502176189",
    "priceText": "¥24/人",
    "address": "曹安公路2363号2楼",
    "regionName": "江桥",
    "city": "上海",
    "urlKey": "2025-04-30/dianping/data-GaZi2VfYS2GWpEuk"
  },
  {
    "name": "蜂鸟电竞",
    "lat": 31.379131,
    "lng": 121.439441,
    "phone": "19121896862",
    "priceText": "¥29/人",
    "address": "杨泰路539号",
    "regionName": "杨行镇",
    "city": "上海",
    "urlKey": "2025-04-30/dianping/data-GaXIRcuQ5yoxyYBv"
  },
  {
    "name": "名旺网吧棋牌",
    "lat": 31.233094,
    "lng": 121.480846,
    "phone": "53530808",
    "priceText": "¥18/人",
    "address": "福州路515号青莲阁2层",
    "regionName": "南京东路",
    "city": "上海",
    "urlKey": "2025-04-30/dianping/data-GaWeomB3Z4xJrMvR"
  },
  {
    "name": "魔神电竞",
    "lat": 31.318601,
    "lng": 121.214743,
    "phone": "19121008763",
    "priceText": "¥9/人",
    "address": "方中路117号2楼",
    "regionName": "安亭镇",
    "city": "上海",
    "urlKey": "2025-04-30/dianping/data-GaVTdwnCO3VeYkHr"
  },
  {
    "name": "网鱼网咖",
    "lat": 31.251501,
    "lng": 121.390251,
    "phone": "15317671109",
    "priceText": "¥23/人",
    "address": "铜川路1601-1603号-3楼",
    "regionName": "真如",
    "city": "上海",
    "urlKey": "2025-04-30/dianping/data-GaRmzlgBzW0FoM7y"
  },
  {
    "name": "战狼电竞",
    "lat": 31.142991,
    "lng": 121.499771,
    "phone": "17749711134",
    "priceText": "¥11/人",
    "address": "灵岩南路1059号2楼",
    "regionName": "三林地区",
    "city": "上海",
    "urlKey": "2025-04-30/dianping/data-GaNzkoxEFyy5WCy5"
  },
  {
    "name": "网鱼网咖",
    "lat": 30.961641,
    "lng": 121.435421,
    "phone": "18721131348",
    "priceText": "¥16/人",
    "address": "肖塘路255弄4号楼3层",
    "regionName": "西渡镇",
    "city": "上海",
    "urlKey": "2025-04-30/dianping/data-GaMsmcY7RkLtbR6E"
  },
  {
    "name": "网鱼电竞",
    "lat": 31.267672,
    "lng": 121.390702,
    "phone": "18721827925",
    "priceText": "¥37/人",
    "address": "交通路4687号2楼",
    "regionName": "桃浦",
    "city": "上海",
    "urlKey": "2025-04-30/dianping/data-GaLwn03EOrOWji8s"
  },
  {
    "name": "网鱼电竞",
    "lat": 31.279536,
    "lng": 121.49117,
    "phone": "15316342406",
    "priceText": "¥24/人",
    "address": "曲阳路566号5楼503室",
    "regionName": "曲阳地区",
    "city": "上海",
    "urlKey": "2025-04-30/dianping/data-GaGnw2OsrHgdCgPW"
  },
  {
    "name": "景程网咖",
    "lat": 31.35829,
    "lng": 121.42153,
    "phone": "56672100",
    "priceText": "¥22/人",
    "address": "水产西路513号2楼",
    "regionName": "宝山区",
    "city": "上海",
    "urlKey": "2025-04-30/dianping/data-GaEWv9zlVnf6wlIp"
  },
  {
    "name": "网鱼网咖",
    "lat": 30.894983,
    "lng": 121.906109,
    "phone": "15000155214",
    "priceText": "¥45/人",
    "address": "南汇新城镇港城新天地茉莉路225弄B幢303室",
    "regionName": "南汇新城",
    "city": "上海",
    "urlKey": "2025-04-30/dianping/data-GaCFqaUWkzA7zbsS"
  },
  {
    "name": "网鱼电竞·棋牌",
    "lat": 31.259917,
    "lng": 121.500158,
    "phone": "18217010275",
    "priceText": "¥41/人",
    "address": "嘉兴路街道公平路776号2楼（近临平路地铁站3号口）",
    "regionName": "临平路/和平公园",
    "city": "上海",
    "urlKey": "2025-04-30/dianping/data-Ga4CIR6aBZcj8DGj"
  },
  {
    "name": "W电竞社",
    "lat": 31.095339,
    "lng": 121.375952,
    "phone": "19921555509",
    "priceText": "¥38/人",
    "address": "沁春路1322弄4-6号",
    "regionName": "莘庄",
    "city": "上海",
    "urlKey": "2025-04-30/dianping/data-Ga0Uegyvfvxutqhd"
  },
  {
    "name": "蓝胖电竞",
    "lat": 31.265951,
    "lng": 121.540861,
    "phone": "18302104602",
    "priceText": "¥36/人",
    "address": "临青路273-275号金凤大楼2层",
    "regionName": "平凉路/东外滩",
    "city": "上海",
    "urlKey": "2025-04-30/dianping/data-G9yNK2sRfIzZ3ZpY"
  },
  {
    "name": "万炫网咖",
    "lat": 31.244335,
    "lng": 121.323317,
    "phone": "19101610073",
    "priceText": "¥103/人",
    "address": "鹤望路487号",
    "regionName": "江桥万达广场",
    "city": "上海",
    "urlKey": "2025-04-30/dianping/data-G9i9jvN7D3XPTCip"
  },
  {
    "name": "网鱼电竞",
    "lat": 30.930558,
    "lng": 121.464318,
    "phone": "17717247749",
    "priceText": "¥34/人",
    "address": "航南公路5511号三层308室",
    "regionName": "易买得",
    "city": "上海",
    "urlKey": "2025-04-30/dianping/data-G9fjYsBHjTnMMEE2"
  },
  {
    "name": "魔兔网咖",
    "lat": 31.106581,
    "lng": 121.378411,
    "phone": "15821918233",
    "priceText": "¥31/人",
    "address": "莘东路100号海星大楼二楼",
    "regionName": "莘庄",
    "city": "上海",
    "urlKey": "2025-04-30/dianping/data-G9d7HeyUcRdoCJmv"
  },
  {
    "name": "网鱼网咖",
    "lat": 30.728512,
    "lng": 121.336128,
    "phone": "67961113",
    "priceText": "¥24/人",
    "address": "山阳镇卫零路643号3楼(近莲花超市)",
    "regionName": "卫零路",
    "city": "上海",
    "urlKey": "2025-04-30/dianping/data-G9d0RKBJ0ItLLADV"
  },
  {
    "name": "战壕网咖 ",
    "lat": 31.196398,
    "lng": 121.459017,
    "phone": "18301953419",
    "priceText": "¥37/人",
    "address": "小木桥路321号底层",
    "regionName": "肇嘉浜路/中山医院",
    "city": "上海",
    "urlKey": "2025-04-30/dianping/data-G9YUHjXpPILPdDZa"
  },
  {
    "name": "网鱼电竞",
    "lat": 31.302252,
    "lng": 121.518012,
    "phone": "35360393",
    "priceText": "¥38/人",
    "address": "国庠路28号B1（近好乐迪财富店）",
    "regionName": "五角场/大学路",
    "city": "上海",
    "urlKey": "2025-04-30/dianping/data-G9CSaKlocqVF5sCe"
  },
  {
    "name": "杰拉电竞·网咖",
    "lat": 31.235521,
    "lng": 121.437472,
    "phone": "13761957037",
    "priceText": "¥27/人",
    "address": "余姚路332号",
    "regionName": "曹家渡",
    "city": "上海",
    "urlKey": "2025-04-30/dianping/data-G8hhkEl8wHGFtm99"
  },
  {
    "name": "网鱼网咖·电竞",
    "lat": 31.272505,
    "lng": 121.414335,
    "phone": "17521738945",
    "priceText": "¥40/人",
    "address": "大华路538号大华澳洲广场2楼201室（大华二路）",
    "regionName": "大华地区",
    "city": "上海",
    "urlKey": "2025-04-30/dianping/data-G8aofwHspASQXelC"
  },
  {
    "name": "网鱼电竞",
    "lat": 31.026026,
    "lng": 121.520141,
    "phone": "17316455991",
    "priceText": "¥35/人",
    "address": "鲁南路538号13幢2层209-210室",
    "regionName": "浦江镇",
    "city": "上海",
    "urlKey": "2025-04-30/dianping/data-G8a7ziwDhVqrFZeZ"
  },
  {
    "name": "网鱼电竞",
    "lat": 31.404219,
    "lng": 121.482099,
    "phone": "15800517209",
    "priceText": "¥32/人",
    "address": "牡丹江路1728号3楼302室",
    "regionName": "宝山城区/吴淞",
    "city": "上海",
    "urlKey": "2025-04-30/dianping/data-G8XRiIuVZbEt8esh"
  },
  {
    "name": "摩兔网咖",
    "lat": 31.216614,
    "lng": 121.616898,
    "phone": "",
    "priceText": "¥69/人",
    "address": "广兰路236号2楼",
    "regionName": "张江",
    "city": "上海",
    "urlKey": "2025-04-30/dianping/data-G8T350NflKOZbHL3"
  },
  {
    "name": "魔兔网咖",
    "lat": 31.363977,
    "lng": 121.544457,
    "phone": "13524782587",
    "priceText": "¥36/人",
    "address": "江东路1400弄19-21号",
    "regionName": "外高桥",
    "city": "上海",
    "urlKey": "2025-04-30/dianping/data-G8OKmS1E09dRZkY0"
  },
  {
    "name": "悟空电竞",
    "lat": 31.269869,
    "lng": 121.478095,
    "phone": "15656285217",
    "priceText": "¥38/人",
    "address": "花园路38号.207.208.209-212室",
    "regionName": "虹口足球场/鲁迅公园",
    "city": "上海",
    "urlKey": "2025-04-30/dianping/data-G8FC87xtYu1nvSIc"
  },
  {
    "name": "网鱼电竞",
    "lat": 31.134358,
    "lng": 121.414098,
    "phone": "18217658325",
    "priceText": "¥40/人",
    "address": "虹梅南路379弄27号力波商场3楼310-311室",
    "regionName": "莲花路/南方商城",
    "city": "上海",
    "urlKey": "2025-04-30/dianping/data-G8EYKNfGZHWwI3KN"
  },
  {
    "name": "古巴电竞",
    "lat": 31.345839,
    "lng": 121.243082,
    "phone": "15216641740",
    "priceText": "¥30/人",
    "address": "云屏路1520弄8号",
    "regionName": "嘉定新城",
    "city": "上海",
    "urlKey": "2025-04-30/dianping/data-G83RSUk5F01sDVbG"
  },
  {
    "name": "网鱼网咖",
    "lat": 31.373461,
    "lng": 121.253217,
    "phone": "15316131610",
    "priceText": "¥34/人",
    "address": "城中路2号1幢3楼网鱼网咖",
    "regionName": "嘉定镇",
    "city": "上海",
    "urlKey": "2025-04-30/dianping/data-G7xCQ9vDfN1XmyTU"
  },
  {
    "name": "网鱼网咖",
    "lat": 31.209629,
    "lng": 121.308469,
    "phone": "18121025627",
    "priceText": "¥41/人",
    "address": "申滨路990号5幢101三层3F-02",
    "regionName": "虹桥火车站/国展中心",
    "city": "上海",
    "urlKey": "2025-04-30/dianping/data-G7v28W1dgjB4JKI6"
  },
  {
    "name": "牛牛电竞",
    "lat": 30.893373,
    "lng": 121.744003,
    "phone": "18721572357",
    "priceText": "¥43/人",
    "address": "港阳路海港商贸城20栋15号",
    "regionName": "奉贤区",
    "city": "上海",
    "urlKey": "2025-04-30/dianping/data-G7t691PXa6qbHJEl"
  },
  {
    "name": "魔神电竞·网咖·棋牌",
    "lat": 31.344751,
    "lng": 121.491221,
    "phone": "13564094404",
    "priceText": "¥19/人",
    "address": "淞南路326号二楼",
    "regionName": "淞南",
    "city": "上海",
    "urlKey": "2025-04-30/dianping/data-G7qo4qjD7A9nGRR4"
  },
  {
    "name": "网鱼网咖",
    "lat": 31.229226,
    "lng": 121.455472,
    "phone": "18916965481",
    "priceText": "¥34/人",
    "address": "南京西路街道江宁路77号恒顺大厦5楼",
    "regionName": "南京西路",
    "city": "上海",
    "urlKey": "2025-04-30/dianping/data-G7iyrThqmLLsxYRf"
  },
  {
    "name": "蓝胖电竞",
    "lat": 31.168829,
    "lng": 121.433057,
    "phone": "19373593324",
    "priceText": "",
    "address": "漕宝路33号徐汇日月光中心A座4楼01部位L4-38-1号",
    "regionName": "漕河泾/田林",
    "city": "上海",
    "urlKey": "2025-04-30/dianping/data-G7fonJAwmbhai4Cv"
  },
  {
    "name": "摩域电竞",
    "lat": 31.311679,
    "lng": 121.532309,
    "phone": "18964010156",
    "priceText": "¥21/人",
    "address": "中原路50号2楼",
    "regionName": "中原地区",
    "city": "上海",
    "urlKey": "2025-04-30/dianping/data-G7dBzMqU4gUXtfi9"
  },
  {
    "name": "网鱼网咖·电竞",
    "lat": 31.281201,
    "lng": 121.421974,
    "phone": "66058183",
    "priceText": "¥26/人",
    "address": "九百购物中心新沪路1139号二楼",
    "regionName": "大华地区",
    "city": "上海",
    "urlKey": "2025-04-30/dianping/data-G7bZmGHyMDpOdmev"
  },
  {
    "name": "网鱼电竞·棋牌",
    "lat": 31.251619,
    "lng": 121.431774,
    "phone": "52995712",
    "priceText": "¥38/人",
    "address": "光新路163号1楼",
    "regionName": "中山北路/甘泉地区",
    "city": "上海",
    "urlKey": "2025-04-30/dianping/data-G798kFodxf71vHMS"
  },
  {
    "name": "欢鹿土星电竞",
    "lat": 31.248562,
    "lng": 121.400772,
    "phone": "18721825735",
    "priceText": "¥39/人",
    "address": "北石路149号",
    "regionName": "真如",
    "city": "上海",
    "urlKey": "2025-04-30/dianping/data-G78klkwqwmh0cUgM"
  },
  {
    "name": "网鱼网咖",
    "lat": 31.148071,
    "lng": 121.430222,
    "phone": "18221744769",
    "priceText": "¥22/人",
    "address": "石龙路971号二楼",
    "regionName": "上海南站",
    "city": "上海",
    "urlKey": "2025-04-30/dianping/data-G78jlvacDV2JFfbG"
  },
  {
    "name": "红猫电竞馆",
    "lat": 31.355867,
    "lng": 121.389517,
    "phone": "13817467482",
    "priceText": "¥25/人",
    "address": "顾荻路378号2楼",
    "regionName": "顾村公园",
    "city": "上海",
    "urlKey": "2025-04-30/dianping/data-G70eBHaNuKFs4Z2Q"
  },
  {
    "name": "古巴电竞",
    "lat": 31.28787,
    "lng": 121.221494,
    "phone": "18901805312",
    "priceText": "¥28/人",
    "address": "嘉松北路6130弄嘉实广场193号301室",
    "regionName": "安亭黄渡镇",
    "city": "上海",
    "urlKey": "2025-04-30/dianping/data-G6wEG4HK1MZFGP3V"
  },
  {
    "name": "虹丰网咖",
    "lat": 31.26341,
    "lng": 121.3321,
    "phone": "18790070319",
    "priceText": "¥32/人",
    "address": "江桥镇曹安公路2688号二楼",
    "regionName": "江桥",
    "city": "上海",
    "urlKey": "2025-04-30/dianping/data-G6ruhMQLOS3TElXL"
  },
  {
    "name": "柯森电竞",
    "lat": 31.407573,
    "lng": 121.484243,
    "phone": "18917357326",
    "priceText": "¥28/人",
    "address": "团结路58号",
    "regionName": "宝山城区/吴淞",
    "city": "上海",
    "urlKey": "2025-04-30/dianping/data-G6obd054GsTyh0ss"
  },
  {
    "name": "网鱼网咖",
    "lat": 31.115479,
    "lng": 121.577007,
    "phone": "18916535415",
    "priceText": "¥37/人",
    "address": "康沈路1670-1672号2层（靠近年家浜路 肯德基对面）",
    "regionName": "康桥/周浦",
    "city": "上海",
    "urlKey": "2025-04-30/dianping/data-G6oPqoCocUNKyEvQ"
  },
  {
    "name": "连盈网咖",
    "lat": 31.232441,
    "lng": 121.314961,
    "phone": "13601639454",
    "priceText": "¥59/人",
    "address": "爱特路179号二楼",
    "regionName": "江桥",
    "city": "上海",
    "urlKey": "2025-04-30/dianping/data-G6hRV4wcR6zTmL1o"
  },
  {
    "name": "网鱼网咖",
    "lat": 31.312364,
    "lng": 121.587964,
    "phone": "13761104956",
    "priceText": "¥21/人",
    "address": "启帆路430号230-233室阳光天地2层",
    "regionName": "高行",
    "city": "上海",
    "urlKey": "2025-04-30/dianping/data-G6h72rIpoMg3wP8F"
  },
  {
    "name": "网鱼电竞",
    "lat": 31.124371,
    "lng": 121.387938,
    "phone": "18201887008",
    "priceText": "¥32/人",
    "address": "报春路406号二楼",
    "regionName": "莲花路/南方商城",
    "city": "上海",
    "urlKey": "2025-04-30/dianping/data-G6dnyaH7hUkKziSR"
  },
  {
    "name": "网鱼网咖·棋牌",
    "lat": 31.099373,
    "lng": 121.184733,
    "phone": "19901693664",
    "priceText": "¥30/人",
    "address": "桃源路251号佘山市场二楼",
    "regionName": "佘山",
    "city": "上海",
    "urlKey": "2025-04-30/dianping/data-G6bCHbNHy5fM4rxa"
  },
  {
    "name": "网鱼电竞",
    "lat": 31.277317,
    "lng": 121.432121,
    "phone": "15001886891",
    "priceText": "¥40/人",
    "address": "灵石路921号1幢3楼",
    "regionName": "彭浦镇",
    "city": "上海",
    "urlKey": "2025-04-30/dianping/data-G6RJzv9wONuID9QJ"
  },
  {
    "name": "杰拉电竞·网咖",
    "lat": 31.061986,
    "lng": 121.537446,
    "phone": "15921259722",
    "priceText": "¥29/人",
    "address": "江文路470号3楼",
    "regionName": "浦江镇",
    "city": "上海",
    "urlKey": "2025-04-30/dianping/data-G6PTZhFZXMPBZX4Y"
  },
  {
    "name": "雏蜂电竞·网咖",
    "lat": 31.067074,
    "lng": 121.58865,
    "phone": "19116337914",
    "priceText": "¥47/人",
    "address": "下盐路1054-1056号",
    "regionName": "航头",
    "city": "上海",
    "urlKey": "2025-04-30/dianping/data-G6JBL6jt4lw0wubN"
  },
  {
    "name": "连盈网咖",
    "lat": 31.257231,
    "lng": 121.347322,
    "phone": "13817475185",
    "priceText": "",
    "address": "曲江路48-50号(嘉怡路地铁站1号口步行270米)",
    "regionName": "江桥",
    "city": "上海",
    "urlKey": "2025-04-30/dianping/data-G67jUhjroXG74A1z"
  },
  {
    "name": "熙盟电竞",
    "lat": 31.007678,
    "lng": 121.209538,
    "phone": "13816458057",
    "priceText": "",
    "address": "玉树路103号1号楼三楼(玉树路兴日家园东门正对面)",
    "regionName": "飞航广场",
    "city": "上海",
    "urlKey": "2025-04-30/dianping/data-G66uEPsmbKm1wWr4"
  },
  {
    "name": "明江网咖",
    "lat": 31.084608,
    "lng": 121.421754,
    "phone": "13482877991",
    "priceText": "¥9/人",
    "address": "双柏路1786号梅莲农贸市场3楼",
    "regionName": "唐湾镇/曹行镇",
    "city": "上海",
    "urlKey": "2025-04-30/dianping/data-G64oTfFG3P63TCo3"
  },
  {
    "name": "魔神电竞·网咖",
    "lat": 31.235924,
    "lng": 121.444465,
    "phone": "15254490966",
    "priceText": "¥36/人",
    "address": "余姚路1号（余姚路与西康路交叉口）",
    "regionName": "同乐坊/江宁路",
    "city": "上海",
    "urlKey": "2025-04-30/dianping/data-G63fidI24xDV2luD"
  },
  {
    "name": "中数网咖",
    "lat": 31.322171,
    "lng": 121.446071,
    "phone": "56776957",
    "priceText": "¥31/人",
    "address": "共和新路4785号二楼",
    "regionName": "宝山万达广场",
    "city": "上海",
    "urlKey": "2025-04-30/dianping/data-G5iMKXcfNg8tVVXL"
  },
  {
    "name": "网鱼电竞·棋牌",
    "lat": 31.270815,
    "lng": 121.439811,
    "phone": "17821221024",
    "priceText": "¥39/人",
    "address": "运城路236-246号2层203室",
    "regionName": "大宁地区",
    "city": "上海",
    "urlKey": "2025-04-30/dianping/data-G5e88W6hYYAQU4iB"
  },
  {
    "name": "网鱼电竞",
    "lat": 31.012709,
    "lng": 121.310899,
    "phone": "15921306122",
    "priceText": "¥18/人",
    "address": "影视路164号",
    "regionName": "车墩影视城",
    "city": "上海",
    "urlKey": "2025-04-30/dianping/data-G5ZIt4I3YUYfXyPx"
  },
  {
    "name": "火豹电竞",
    "lat": 31.31535,
    "lng": 121.521155,
    "phone": "65115198",
    "priceText": "¥33/人",
    "address": "国和路709号中原城市广场1座5楼1501-1",
    "regionName": "中原地区",
    "city": "上海",
    "urlKey": "2025-04-30/dianping/data-G5YQGvxwqp3Ekh3o"
  },
  {
    "name": "网鱼电竞",
    "lat": 31.261968,
    "lng": 121.479422,
    "phone": "19921307844",
    "priceText": "¥11/人",
    "address": "宝山路778号102-B（3号线东宝兴路站1号口出站即可）",
    "regionName": "四川北路/海伦路",
    "city": "上海",
    "urlKey": "2025-04-30/dianping/data-G5Unk0zYDvZ7CCzu"
  },
  {
    "name": "悟空电竞棋牌",
    "lat": 31.347297,
    "lng": 121.574514,
    "phone": "13042123002",
    "priceText": "¥24/人",
    "address": "张杨北路5688弄45、47、49、50、69号（浦发银行旁）",
    "regionName": "外高桥",
    "city": "上海",
    "urlKey": "2025-04-30/dianping/data-G5UE3Plw1JebRtiI"
  },
  {
    "name": "e家网咖",
    "lat": 31.284071,
    "lng": 121.422721,
    "phone": "13110797591",
    "priceText": "¥30/人",
    "address": "沪太支路180号二楼",
    "regionName": "大华地区",
    "city": "上海",
    "urlKey": "2025-04-30/dianping/data-G5TXrgdMc1vqpHep"
  },
  {
    "name": "零点网咖",
    "lat": 31.386361,
    "lng": 121.254301,
    "phone": "59531402",
    "priceText": "¥26/人",
    "address": "东大街314号秋霞社区工作站2楼",
    "regionName": "嘉定镇",
    "city": "上海",
    "urlKey": "2025-04-30/dianping/data-G5LQWkJmPu4x0ePM"
  },
  {
    "name": "古巴电竞·棋牌",
    "lat": 31.357661,
    "lng": 121.286001,
    "phone": "13788910105",
    "priceText": "¥34/人",
    "address": "马陆澄城公寓1028弄2楼",
    "regionName": "马陆镇",
    "city": "上海",
    "urlKey": "2025-04-30/dianping/data-G5L6F4FV7myOVtVU"
  },
  {
    "name": "网鱼电竞·棋牌",
    "lat": 31.245989,
    "lng": 121.409161,
    "phone": "18317080929",
    "priceText": "¥42/人",
    "address": "武宁路1500号1号楼2楼",
    "regionName": "曹杨地区",
    "city": "上海",
    "urlKey": "2025-04-30/dianping/data-G5GPDsu4gy7W5Tub"
  },
  {
    "name": "C4电竞",
    "lat": 30.885762,
    "lng": 121.313793,
    "phone": "17301677698",
    "priceText": "¥19/人",
    "address": "寺平北路111弄9号2楼",
    "regionName": "亭林镇",
    "city": "上海",
    "urlKey": "2025-04-30/dianping/data-G5CJol31TOCbwzyP"
  },
  {
    "name": "网鱼网咖",
    "lat": 31.010511,
    "lng": 121.254959,
    "phone": "13917635175",
    "priceText": "¥26/人",
    "address": "环城路518号3楼（酷玩天地对面）",
    "regionName": "松江镇",
    "city": "上海",
    "urlKey": "2025-04-30/dianping/data-G5Aj5QCr8eQJUwxh"
  },
  {
    "name": "夕阳电竞",
    "lat": 31.023737,
    "lng": 121.373465,
    "phone": "18930787002",
    "priceText": "¥27/人",
    "address": "富岩路121号万达广场4层4025号铺位",
    "regionName": "闵行开发区",
    "city": "上海",
    "urlKey": "2025-04-30/dianping/data-G58DOjneDunUsQV2"
  },
  {
    "name": "网鱼电竞",
    "lat": 31.243448,
    "lng": 121.545466,
    "phone": "58991329",
    "priceText": "¥35/人",
    "address": "洋泾街道栖山路155号旭辉雅苑(近苗圃路)",
    "regionName": "洋泾",
    "city": "上海",
    "urlKey": "2025-04-30/dianping/data-G550aRF2JVzf0EOV"
  },
  {
    "name": "网鱼电竞",
    "lat": 31.137951,
    "lng": 121.609143,
    "phone": "15956355702",
    "priceText": "¥20/人",
    "address": "秀沿路2751号二楼",
    "regionName": "康桥/周浦",
    "city": "上海",
    "urlKey": "2025-04-30/dianping/data-G4wR2PsrnNjs41DS"
  },
  {
    "name": "网鱼网咖",
    "lat": 31.135855,
    "lng": 121.082883,
    "phone": "15317855922",
    "priceText": "¥39/人",
    "address": "淀山湖大道988弄8号地下1层041室",
    "regionName": "青浦城区",
    "city": "上海",
    "urlKey": "2025-04-30/dianping/data-G4PlvDUBo9daAyvU"
  },
  {
    "name": "网鱼电竞",
    "lat": 31.310911,
    "lng": 121.451507,
    "phone": "13564048187",
    "priceText": "¥27/人",
    "address": "彭浦新村街道临汾路818号海冰宫1楼",
    "regionName": "彭浦新村",
    "city": "上海",
    "urlKey": "2025-04-30/dianping/data-G4PKHz9Yi3GJQLts"
  },
  {
    "name": "网鱼网咖",
    "lat": 31.245763,
    "lng": 121.223286,
    "phone": "19821139834",
    "priceText": "¥29/人",
    "address": "新凤北路499号",
    "regionName": "华新镇",
    "city": "上海",
    "urlKey": "2025-04-30/dianping/data-G47GFh5x3xhwoJ9Q"
  },
  {
    "name": "魔兔网咖",
    "lat": 31.326644,
    "lng": 121.591214,
    "phone": "15221667909",
    "priceText": "¥39/人",
    "address": "高行镇秋岚路72-80号2楼",
    "regionName": "外高桥",
    "city": "上海",
    "urlKey": "2025-04-30/dianping/data-G43chtMTxEObH7FJ"
  },
  {
    "name": "网鱼网咖",
    "lat": 30.882089,
    "lng": 121.322159,
    "phone": "18916792128",
    "priceText": "¥42/人",
    "address": "亭升路66号",
    "regionName": "亭林镇",
    "city": "上海",
    "urlKey": "2025-04-30/dianping/data-G3uQe6eaboXDy1EC"
  },
  {
    "name": "温盈电竞",
    "lat": 31.1696,
    "lng": 121.411438,
    "phone": "13020192690",
    "priceText": "",
    "address": "田林路140号T6幢3F302室",
    "regionName": "漕河泾/田林",
    "city": "上海",
    "urlKey": "2025-04-30/dianping/data-G3qOcbyd0Wb5AJ5t"
  },
  {
    "name": "网鱼网咖",
    "lat": 31.25171,
    "lng": 121.367123,
    "phone": "18930601449",
    "priceText": "¥35/人",
    "address": "丰庄路604号3楼",
    "regionName": "丰庄",
    "city": "上海",
    "urlKey": "2025-04-30/dianping/data-G3gozyfJXcC9j5qK"
  },
  {
    "name": "蜂鸟电竞卓威体验馆",
    "lat": 31.327393,
    "lng": 121.451033,
    "phone": "15901606581",
    "priceText": "¥27/人",
    "address": "通河路107号共江集贸市场内2楼",
    "regionName": "庙行/共康",
    "city": "上海",
    "urlKey": "2025-04-30/dianping/data-G3ac0Q7JF9pjFrKK"
  },
  {
    "name": "网鱼网咖",
    "lat": 31.160631,
    "lng": 121.152631,
    "phone": "13133617628",
    "priceText": "¥34/人",
    "address": "汇金路588弄（17号线2号出口旁）",
    "regionName": "青浦城区",
    "city": "上海",
    "urlKey": "2025-04-30/dianping/data-G3Uk411RfRCIggdi"
  },
  {
    "name": "欢鹿土星电竞",
    "lat": 31.256791,
    "lng": 121.456066,
    "phone": "18721826019",
    "priceText": "¥24/人",
    "address": "芷江西路547号2楼201室",
    "regionName": "上海长途汽车站",
    "city": "上海",
    "urlKey": "2025-04-30/dianping/data-G3UG5RM5cr6NUu0X"
  },
  {
    "name": "网鱼电竞",
    "lat": 30.988939,
    "lng": 121.431274,
    "phone": "16621231078",
    "priceText": "¥33/人",
    "address": "西渡街道连城商业广场2号楼",
    "regionName": "西渡镇",
    "city": "上海",
    "urlKey": "2025-04-30/dianping/data-G3ODCUiscwJCbTcH"
  },
  {
    "name": "乐乐网咖",
    "lat": 31.202721,
    "lng": 121.656128,
    "phone": "13817466430",
    "priceText": "¥47/人",
    "address": "唐安路1091-1101号2楼",
    "regionName": "唐镇",
    "city": "上海",
    "urlKey": "2025-04-30/dianping/data-G3EMAM5vi6HYUg4o"
  },
  {
    "name": "网鱼电竞",
    "lat": 31.344651,
    "lng": 121.491478,
    "phone": "36211606",
    "priceText": "¥24/人",
    "address": "淞南路363号2楼（中国邮政储蓄前行100米）",
    "regionName": "淞南",
    "city": "上海",
    "urlKey": "2025-04-30/dianping/data-G3CNpPhyFskOEWeV"
  },
  {
    "name": "网猫网咖",
    "lat": 31.269767,
    "lng": 121.547615,
    "phone": "",
    "priceText": "¥28/人",
    "address": "隆昌路235-1号",
    "regionName": "平凉路/东外滩",
    "city": "上海",
    "urlKey": "2025-04-30/dianping/data-G38djCyq1AkaEdbt"
  },
  {
    "name": "E家网咖",
    "lat": 31.271963,
    "lng": 121.414278,
    "phone": "",
    "priceText": "¥31/人",
    "address": "大华路518号3楼(讴K拉量贩KTV直达)",
    "regionName": "大华地区",
    "city": "上海",
    "urlKey": "2025-04-30/dianping/data-G34uC45IOtJipGoq"
  },
  {
    "name": "魔兔电竞",
    "lat": 31.288699,
    "lng": 121.498094,
    "phone": "17317577119",
    "priceText": "¥30/人",
    "address": "辉河路47号2楼",
    "regionName": "大柏树",
    "city": "上海",
    "urlKey": "2025-04-30/dianping/data-G2wGW1frreW0KPNE"
  },
  {
    "name": "网鱼网咖·Vision Pro",
    "lat": 31.191359,
    "lng": 121.313779,
    "phone": "18116380172",
    "priceText": "¥49/人",
    "address": "申长路799号龙湖虹桥天街B馆3层（海底捞对面）",
    "regionName": "虹桥枢纽",
    "city": "上海",
    "urlKey": "2025-04-30/dianping/data-G2vk45sFKxEnykCc"
  },
  {
    "name": "青枫网咖",
    "lat": 31.126091,
    "lng": 121.587308,
    "phone": "58070638",
    "priceText": "¥15/人",
    "address": "川周公路4009号2楼",
    "regionName": "康桥/周浦",
    "city": "上海",
    "urlKey": "2025-04-30/dianping/data-G2pv8hVvPuhESWNP"
  },
  {
    "name": "海马电竞网咖",
    "lat": 31.290447,
    "lng": 121.158751,
    "phone": "15316022287",
    "priceText": "¥26/人",
    "address": "新源路105弄5号2楼、3楼（安亭地铁站4口步行400米）",
    "regionName": "安亭新源路",
    "city": "上海",
    "urlKey": "2025-04-30/dianping/data-G2lDjotAp7scMDCL"
  },
  {
    "name": "魔神电竞·网咖",
    "lat": 31.320041,
    "lng": 121.472331,
    "phone": "15800489013",
    "priceText": "¥19/人",
    "address": "殷高西路588号2楼212-218室（雀茗居楼上）",
    "regionName": "高境",
    "city": "上海",
    "urlKey": "2025-04-30/dianping/data-G2hA7ZzCjT3ATSJA"
  },
  {
    "name": "魔兔电竞",
    "lat": 31.262854,
    "lng": 121.657001,
    "phone": "13472779967",
    "priceText": "¥48/人",
    "address": "顾唐路172号2楼",
    "regionName": "曹路",
    "city": "上海",
    "urlKey": "2025-04-30/dianping/data-G2fNPSsI8g8YiezR"
  },
  {
    "name": "网鱼网咖",
    "lat": 31.276879,
    "lng": 121.668337,
    "phone": "13818111113",
    "priceText": "¥22/人",
    "address": "川沙路420号",
    "regionName": "曹路",
    "city": "上海",
    "urlKey": "2025-04-30/dianping/data-G2eZpaWxuzsu8YFH"
  },
  {
    "name": "网鱼网咖",
    "lat": 31.217547,
    "lng": 121.458521,
    "phone": "64668831",
    "priceText": "¥42/人",
    "address": "陕西南路238号中轻商务楼1层",
    "regionName": "淮海路",
    "city": "上海",
    "urlKey": "2025-04-30/dianping/data-G2cFmBhC4OEdFcoV"
  },
  {
    "name": "哈神电竞",
    "lat": 30.924172,
    "lng": 121.573381,
    "phone": "15921363297",
    "priceText": "¥25/人",
    "address": "南奉公路3111弄1幢",
    "regionName": "青村",
    "city": "上海",
    "urlKey": "2025-04-30/dianping/data-G2ZIp25jala2xfk3"
  },
  {
    "name": "网鱼网咖",
    "lat": 31.2256,
    "lng": 121.331157,
    "phone": "13042132002",
    "priceText": "¥33/人",
    "address": "北翟路2000弄金色西郊城116号楼1-2层",
    "regionName": "北翟路",
    "city": "上海",
    "urlKey": "2025-04-30/dianping/data-G2VwYMvE0Zt4bFk2"
  },
  {
    "name": "乐乐网咖",
    "lat": 31.309903,
    "lng": 121.538876,
    "phone": "18939727635",
    "priceText": "¥33/人",
    "address": "翔殷三村包头路150号2楼",
    "regionName": "中原地区",
    "city": "上海",
    "urlKey": "2025-04-30/dianping/data-G2PTd1h6JGHgI9Ak"
  },
  {
    "name": "古巴电竞",
    "lat": 31.315965,
    "lng": 121.226589,
    "phone": "18117573842",
    "priceText": "¥10/人",
    "address": "方陆路88弄1号2楼",
    "regionName": "安亭镇",
    "city": "上海",
    "urlKey": "2025-04-30/dianping/data-G2M0AInLm5TForJA"
  },
  {
    "name": "峰鲨电竞",
    "lat": 31.142838,
    "lng": 121.499478,
    "phone": "17721404257",
    "priceText": "",
    "address": "灵岩南路1064号2楼",
    "regionName": "三林地区",
    "city": "上海",
    "urlKey": "2025-04-30/dianping/data-G2L4HfSJpNBFAj0Q"
  },
  {
    "name": "夕阳电竞",
    "lat": 31.250042,
    "lng": 121.460548,
    "phone": "19117396528",
    "priceText": "¥48/人",
    "address": "太阳山路171号2层 175号2层,177号2层",
    "regionName": "上海火车站/客运汽车总站",
    "city": "上海",
    "urlKey": "2025-04-30/dianping/data-G27fRiAJguFKBgiy"
  },
  {
    "name": "网鱼网咖",
    "lat": 31.021742,
    "lng": 121.700061,
    "phone": "15317846825",
    "priceText": "¥30/人",
    "address": "宣中路500弄67号三楼",
    "regionName": "迪士尼",
    "city": "上海",
    "urlKey": "2025-04-30/dianping/data-G25iMQVSaxEM1DkO"
  },
  {
    "name": "金葵网咖·台球·棋牌",
    "lat": 31.238901,
    "lng": 121.632179,
    "phone": "17317151534",
    "priceText": "¥26/人",
    "address": "金葵路1176号二楼",
    "regionName": "金桥",
    "city": "上海",
    "urlKey": "2025-04-30/dianping/data-G25ZMZoQj3h3WzUW"
  },
  {
    "name": "峰鲨电竞·棋牌",
    "lat": 31.119341,
    "lng": 121.363821,
    "phone": "13162565008",
    "priceText": "",
    "address": "疏影路976号2楼",
    "regionName": "莘庄",
    "city": "上海",
    "urlKey": "2025-04-30/dianping/data-G24h38Ho0yagtv83"
  },
  {
    "name": "网鱼电竞",
    "lat": 31.092438,
    "lng": 121.418887,
    "phone": "13524228761",
    "priceText": "¥39/人",
    "address": "曙建路146号",
    "regionName": "颛桥/北桥",
    "city": "上海",
    "urlKey": "2025-04-30/dianping/data-G1xF8sRgxo9Qpq54"
  },
  {
    "name": "古巴电竞",
    "lat": 31.384591,
    "lng": 121.226472,
    "phone": "15317588871",
    "priceText": "¥44/人",
    "address": "红石路607号2层",
    "regionName": "嘉定西/悠活城",
    "city": "上海",
    "urlKey": "2025-04-30/dianping/data-G1eMWQLQ59jhqeIa"
  },
  {
    "name": "魔兔电竞",
    "lat": 31.209803,
    "lng": 121.651833,
    "phone": "15000258304",
    "priceText": "¥24/人",
    "address": "唐安路695弄37号2楼",
    "regionName": "唐镇",
    "city": "上海",
    "urlKey": "2025-04-30/dianping/data-G1a5dccgPzrlFKtU"
  },
  {
    "name": "乐乐网咖·棋牌",
    "lat": 31.279638,
    "lng": 121.666612,
    "phone": "13386173523",
    "priceText": "¥35/人",
    "address": "川沙路338号",
    "regionName": "曹路",
    "city": "上海",
    "urlKey": "2025-04-30/dianping/data-G1MGgykGLyCAnXGE"
  },
  {
    "name": "西瓜网咖",
    "lat": 31.006537,
    "lng": 121.234275,
    "phone": "18721295672",
    "priceText": "¥35/人",
    "address": "中山中路99-103号三楼",
    "regionName": "鹿都国际商业广场",
    "city": "上海",
    "urlKey": "2025-04-30/dianping/data-G1JLY9o867Y0dstG"
  },
  {
    "name": "",
    "lat": "",
    "lng": "",
    "phone": "",
    "priceText": "",
    "address": "",
    "regionName": "",
    "city": "上海",
    "urlKey": "2025-04-30/dianping/data-G1I8TaRkbNR2LUYT"
  },
  {
    "name": "驰速电竞棋牌",
    "lat": 31.188845,
    "lng": 121.377295,
    "phone": "18106073150",
    "priceText": "¥25/人",
    "address": "虹中路790号2楼",
    "regionName": "虹桥镇",
    "city": "上海",
    "urlKey": "2025-04-30/dianping/data-G1EjhaTXk8SIg43g"
  },
  {
    "name": "夕阳电竞",
    "lat": 31.206061,
    "lng": 121.399759,
    "phone": "18321240029",
    "priceText": "¥42/人",
    "address": "仙霞路321、327号东部3层301、302室",
    "regionName": "天山",
    "city": "上海",
    "urlKey": "2025-04-30/dianping/data-G1B9gCrOovOJ1Qem"
  },
  {
    "name": "网鱼网咖·台球·棋牌",
    "lat": 31.152304,
    "lng": 121.402368,
    "phone": "13917888440",
    "priceText": "¥37/人",
    "address": "古美路1006号3楼306、307室",
    "regionName": "万源城/东兰路",
    "city": "上海",
    "urlKey": "2025-04-30/dianping/data-G11UoRizHfUces7P"
  },
  {
    "name": "网鱼网咖·棋牌",
    "lat": 31.101212,
    "lng": 121.255471,
    "phone": "13661704786",
    "priceText": "¥30/人",
    "address": "德悦路385号二楼",
    "regionName": "洞泾",
    "city": "上海",
    "urlKey": "2025-04-30/dianping/data-Fq8MMGFaTphfbcUu"
  },
  {
    "name": "虎鲨电竞",
    "lat": 31.301253,
    "lng": 121.528733,
    "phone": "15316116387",
    "priceText": "¥49/人",
    "address": "安波路533弄2号101、102室",
    "regionName": "黄兴公园",
    "city": "上海",
    "urlKey": "2025-04-30/dianping/data-FoCWQX0vn2PEqa2v"
  },
  {
    "name": "魔兔网咖·台球",
    "lat": 31.133239,
    "lng": 121.400732,
    "phone": "13310179323",
    "priceText": "¥31/人",
    "address": "沪闵路7398号来来大酒店电梯上三楼",
    "regionName": "莲花路/南方商城",
    "city": "上海",
    "urlKey": "2025-04-30/dianping/data-FnDev51DM7XTmepM"
  },
  {
    "name": "匠星网络",
    "lat": 31.191614,
    "lng": 121.413293,
    "phone": "52715398",
    "priceText": "¥37/人",
    "address": "宋园路101号B1层A",
    "regionName": "虹桥/古北",
    "city": "上海",
    "urlKey": "2025-04-30/dianping/data-FhzkOQIsINt0THhH"
  },
  {
    "name": "友趣电竞",
    "lat": 31.155698,
    "lng": 121.506248,
    "phone": "18017720167",
    "priceText": "¥28/人",
    "address": "上南路3521号4幢2层202",
    "regionName": "三林地区",
    "city": "上海",
    "urlKey": "2025-04-30/dianping/data-FeM8P3yb1k8Gh2jg"
  },
  {
    "name": "网鱼网咖",
    "lat": 31.281816,
    "lng": 121.610271,
    "phone": "15800834126",
    "priceText": "¥21/人",
    "address": "金高路1071弄3号3楼",
    "regionName": "高行",
    "city": "上海",
    "urlKey": "2025-04-30/dianping/data-FcTYFKRf8aipe2fA"
  },
  {
    "name": "网鱼网咖",
    "lat": 31.088336,
    "lng": 121.760907,
    "phone": "15026876775",
    "priceText": "¥24/人",
    "address": "祝桥镇川南奉公路5642号2楼（网鱼网咖盐仓店）",
    "regionName": "祝桥",
    "city": "上海",
    "urlKey": "2025-04-30/dianping/data-Fb6fB7zmgLvSdwrD"
  },
  {
    "name": "网鱼电竞",
    "lat": 31.168779,
    "lng": 121.497149,
    "phone": "19921221057",
    "priceText": "¥27/人",
    "address": "上南路1589号二楼",
    "regionName": "上南地区",
    "city": "上海",
    "urlKey": "2025-04-30/dianping/data-FS1T0iFPtN6NRadT"
  },
  {
    "name": "网鱼电竞·棋牌",
    "lat": 31.315592,
    "lng": 121.385972,
    "phone": "56565889",
    "priceText": "¥13/人",
    "address": "聚丰园路57弄3号弘基广场二楼203室（上海大学西门）",
    "regionName": "上海大学",
    "city": "上海",
    "urlKey": "2025-04-30/dianping/data-FPHU2RN5zRxtuqlf"
  },
  {
    "name": "徽盟电竞",
    "lat": 31.062608,
    "lng": 121.313765,
    "phone": "18017077757",
    "priceText": "¥27/人",
    "address": "新镇街45弄1-9号2-3楼",
    "regionName": "新桥",
    "city": "上海",
    "urlKey": "2025-04-30/dianping/data-FMunDc7LZ8HT0Bqi"
  },
  {
    "name": "网鱼网咖",
    "lat": 31.180091,
    "lng": 121.541281,
    "phone": "19117009002",
    "priceText": "¥40/人",
    "address": "锦绣路3218号2层A08室",
    "regionName": "北蔡",
    "city": "上海",
    "urlKey": "2025-04-30/dianping/data-FE2ViUrlmAk2ZIV1"
  },
  {
    "name": "加榕网咖",
    "lat": 31.152524,
    "lng": 121.435284,
    "phone": "64182399",
    "priceText": "¥28/人",
    "address": "龙川北路900-2号",
    "regionName": "上海南站",
    "city": "上海",
    "urlKey": "2025-04-30/dianping/data-FDBRYmDCAIFm3VnJ"
  },
  {
    "name": "魔王电竞",
    "lat": 30.915803,
    "lng": 121.489593,
    "phone": "57501598",
    "priceText": "¥25/人",
    "address": "望园南路1588弄19号(A1绿地未来中心1楼)汉庭酒店后排",
    "regionName": "南桥",
    "city": "上海",
    "urlKey": "2025-04-30/dianping/data-F9nr0iLTfjLLqjYd"
  },
  {
    "name": "喵喵网咖",
    "lat": 31.067151,
    "lng": 121.589326,
    "phone": "58126891",
    "priceText": "¥38/人",
    "address": "下盐路1062号1层",
    "regionName": "航头",
    "city": "上海",
    "urlKey": "2025-04-30/dianping/data-F8sy77u6Q7XEvpWA"
  },
  {
    "name": "网鱼电竞",
    "lat": 31.093189,
    "lng": 121.586303,
    "phone": "18702172793",
    "priceText": "¥35/人",
    "address": "沈梅东路209号2楼",
    "regionName": "康桥/周浦",
    "city": "上海",
    "urlKey": "2025-04-30/dianping/data-F6lIi3LqfStZvkpp"
  },
  {
    "name": "攻略电竞社·棋牌",
    "lat": 31.179248,
    "lng": 121.393458,
    "phone": "61535325",
    "priceText": "¥29/人",
    "address": "虹梅路2905号2楼(吴中路)",
    "regionName": "虹桥镇",
    "city": "上海",
    "urlKey": "2025-04-30/dianping/data-F5mmTgYAEZcbUoaf"
  },
  {
    "name": "网鱼网咖",
    "lat": 31.20306,
    "lng": 121.558741,
    "phone": "17821865016",
    "priceText": "¥45/人",
    "address": "龙阳路2000号龙阳广场4楼",
    "regionName": "花木",
    "city": "上海",
    "urlKey": "2025-04-30/dianping/data-F37XxvYznHnyG8mm"
  },
  {
    "name": "网鱼电竞",
    "lat": 31.175437,
    "lng": 121.372934,
    "phone": "18200327621",
    "priceText": "¥32/人",
    "address": "爱琴海购物中心虹井路120弄6号楼3层外切铺（乘坐大喇叭观光电梯上三楼出电梯左转第三个店铺）",
    "regionName": "龙柏地区",
    "city": "上海",
    "urlKey": "2025-04-30/dianping/data-EzcFCZnFOB5x7tWb"
  },
  {
    "name": "网鱼网咖",
    "lat": 31.033482,
    "lng": 121.596646,
    "phone": "18221334237",
    "priceText": "¥27/人",
    "address": "沪南路5780号二楼204室（中国银行航头支行二楼）",
    "regionName": "航头",
    "city": "上海",
    "urlKey": "2025-04-30/dianping/data-EyLRHJgSXFwtIKwX"
  },
  {
    "name": "魔兔电竞",
    "lat": 31.263832,
    "lng": 121.685932,
    "phone": "18217686279",
    "priceText": "¥18/人",
    "address": "龚华路235弄48号3楼",
    "regionName": "曹路",
    "city": "上海",
    "urlKey": "2025-04-30/dianping/data-EvE5TAPJYlnw1h5Z"
  },
  {
    "name": "攻略电竞社·棋牌",
    "lat": 31.131143,
    "lng": 121.432924,
    "phone": "61522001",
    "priceText": "¥33/人",
    "address": "罗秀路887号3楼301室",
    "regionName": "上海南站",
    "city": "上海",
    "urlKey": "2025-04-30/dianping/data-Eq1ivfIXrwlQDtqi"
  },
  {
    "name": "莱米网咖",
    "lat": 31.166723,
    "lng": 121.101163,
    "phone": "13818227282",
    "priceText": "¥39/人",
    "address": "清河湾路847号2楼",
    "regionName": "青浦城区",
    "city": "上海",
    "urlKey": "2025-04-30/dianping/data-Ej0r3hqz9JhqMX0X"
  },
  {
    "name": "网鱼网咖",
    "lat": 31.196424,
    "lng": 121.462184,
    "phone": "13482000292",
    "priceText": "¥37/人",
    "address": "大木桥路428号5楼",
    "regionName": "肇嘉浜路/中山医院",
    "city": "上海",
    "urlKey": "2025-04-30/dianping/data-EYxjulKRivR5JV22"
  },
  {
    "name": "零点网咖",
    "lat": 31.249711,
    "lng": 121.364507,
    "phone": "18121338652",
    "priceText": "¥29/人",
    "address": "丰庄北路383号2-3楼",
    "regionName": "丰庄",
    "city": "上海",
    "urlKey": "2025-04-30/dianping/data-EYadxyIrnKaKNZeK"
  },
  {
    "name": "网鱼电竞",
    "lat": 31.163794,
    "lng": 121.411504,
    "phone": "18930362433",
    "priceText": "¥34/人",
    "address": "漕宝路400号明申商务广场2楼H室",
    "regionName": "漕河泾/田林",
    "city": "上海",
    "urlKey": "2025-04-30/dianping/data-EWGUZjSMEzjawuLF"
  },
  {
    "name": "长城网咖",
    "lat": 31.262461,
    "lng": 121.677896,
    "phone": "18106918809",
    "priceText": "¥106/人",
    "address": "川沙路1215号二楼",
    "regionName": "曹路",
    "city": "上海",
    "urlKey": "2025-04-30/dianping/data-ESEdRu7l4FYzHqOu"
  },
  {
    "name": "网鱼电竞",
    "lat": 31.183835,
    "lng": 121.428959,
    "phone": "13585559864",
    "priceText": "¥23/人",
    "address": "宜山路455号1层129-134商铺",
    "regionName": "光启城",
    "city": "上海",
    "urlKey": "2025-04-30/dianping/data-ELSHH3ccTOFIFCbe"
  },
  {
    "name": "网鱼网咖",
    "lat": 31.354481,
    "lng": 121.411371,
    "phone": "19946203719",
    "priceText": "¥30/人",
    "address": "水产西路997号2楼",
    "regionName": "顾村公园",
    "city": "上海",
    "urlKey": "2025-04-30/dianping/data-EIv4xlqSwuC9TZNi"
  },
  {
    "name": "夕阳电竞",
    "lat": 31.252161,
    "lng": 121.442761,
    "phone": "13381620290",
    "priceText": "¥33/人",
    "address": "中潭路65号2层203",
    "regionName": "中山北路/甘泉地区",
    "city": "上海",
    "urlKey": "2025-04-30/dianping/data-EGesPvtOCGPToVkr"
  },
  {
    "name": "网鱼电竞",
    "lat": 31.245002,
    "lng": 121.451472,
    "phone": "13127568265",
    "priceText": "¥33/人",
    "address": "天目西路500号三楼",
    "regionName": "上海火车站/客运汽车总站",
    "city": "上海",
    "urlKey": "2025-04-30/dianping/data-EDFUx2hZadG886Pt"
  },
  {
    "name": "古巴电竞",
    "lat": 31.355822,
    "lng": 121.418193,
    "phone": "19084231858",
    "priceText": "¥26/人",
    "address": "摩登公馆680弄5号",
    "regionName": "共富新村",
    "city": "上海",
    "urlKey": "2025-04-30/dianping/data-EB1Uifg3GCFXGqVO"
  },
  {
    "name": "轻舟网咖",
    "lat": 31.063052,
    "lng": 121.309111,
    "phone": "18779341559",
    "priceText": "¥15/人",
    "address": "九新公路2730号3楼",
    "regionName": "新桥",
    "city": "上海",
    "urlKey": "2025-04-30/dianping/data-E2MbnQK79VJ4YXEE"
  },
  {
    "name": "网鱼网咖",
    "lat": 31.108931,
    "lng": 121.058331,
    "phone": "17621481896",
    "priceText": "¥53/人",
    "address": "朱家角镇朱家角新风路100弄7号3楼（老凤祥楼上）",
    "regionName": "朱家角/东方绿舟",
    "city": "上海",
    "urlKey": "2025-04-30/dianping/data-E1tFEGUcfheY1iDJ"
  }
]